,City,Cloudiness,Country,Date,Humidity,Lat,Lng,Max Temp,Wind Speed
0,teya,80,ru,2018-04-02 22:58:03,75,60.37,92.63,20.38,5.64
1,vaini,88,to,2018-04-02 22:57:55,100,-21.2,-175.2,79.87,27.11
2,albany,0,au,2018-04-02 22:58:04,59,-35.02,117.88,81.31,9.89
3,barrow,90,us,2018-04-02 22:35:00,93,39.51,-90.4,39.2,8.05
4,faanui,44,pf,2018-04-02 22:57:56,100,-16.48,-151.75,82.39,11.79
5,arraial do cabo,24,br,2018-04-02 22:57:56,92,-22.97,-42.02,76.36,2.51
6,punta arenas,0,cl,2018-04-02 22:00:00,80,-53.16,-70.91,41.0,21.92
7,xingyi,0,cn,2018-04-02 22:58:05,49,24.19,102.82,73.39,4.18
8,esperance,0,au,2018-04-02 22:58:06,58,-33.86,121.89,79.24,11.45
9,zheleznodorozhnyy,90,ru,2018-04-02 22:00:00,96,55.75,38.0,35.6,6.71
10,kambove,24,cd,2018-04-02 22:58:06,94,-10.88,26.6,61.96,4.74
11,new norfolk,40,au,2018-04-02 22:30:00,37,-42.78,147.06,71.6,19.46
12,busselton,0,au,2018-04-02 22:57:58,82,-33.64,115.35,75.1,11.79
13,jamestown,88,sh,2018-04-02 22:57:58,100,-15.94,-5.72,74.29,15.7
14,mar del plata,92,ar,2018-04-02 22:57:58,53,-46.43,-67.52,67.63,21.74
15,mondlo,24,za,2018-04-02 22:58:07,91,-27.96,30.72,53.23,2.62
16,nouadhibou,0,mr,2018-04-02 22:00:00,88,20.93,-17.03,64.4,16.11
17,yellowknife,20,ca,2018-04-02 22:00:00,49,62.45,-114.38,3.2,6.93
18,ostrovnoy,92,ru,2018-04-02 22:57:59,94,68.05,39.51,25.69,19.51
19,tigil,0,ru,2018-04-02 22:58:00,96,57.8,158.67,33.34,6.64
20,bandarbeyla,68,so,2018-04-02 22:58:00,100,9.49,50.81,80.23,6.2
21,bluff,44,nz,2018-04-02 22:58:00,93,-46.6,168.33,59.44,31.81
22,beringovskiy,0,ru,2018-04-02 22:58:00,98,63.05,179.32,31.36,6.87
23,aasiaat,64,gl,2018-04-02 22:58:09,90,68.71,-52.87,19.57,1.72
24,chokurdakh,8,ru,2018-04-02 22:58:09,92,70.62,147.9,23.53,13.47
25,pingliang,0,cn,2018-04-02 22:58:01,42,35.54,106.68,59.53,12.01
26,henties bay,92,na,2018-04-02 22:58:01,92,-22.12,14.28,68.98,10.67
27,cape town,0,za,2018-04-02 22:00:00,77,-33.93,18.42,64.4,14.99
28,stokmarknes,0,no,2018-04-02 22:20:00,79,68.56,14.91,23.0,5.82
29,bo,48,no,2018-04-02 22:58:10,74,59.41,9.07,12.91,2.06
30,narsaq,20,gl,2018-04-02 21:50:00,30,60.91,-46.05,41.0,8.05
31,kabo,8,cf,2018-04-02 22:58:03,75,7.69,18.62,75.64,10.33
32,zhigansk,88,ru,2018-04-02 22:58:03,64,66.77,123.37,13.54,8.77
33,port alfred,80,za,2018-04-02 22:58:03,94,-33.59,26.89,70.42,13.47
34,cockburn town,24,bs,2018-04-02 22:58:03,100,24.03,-74.52,74.65,16.37
35,kaeo,8,nz,2018-04-02 22:58:04,48,-35.1,173.78,75.37,2.51
36,olinda,75,br,2018-04-02 22:00:00,83,-22.82,-43.41,77.0,5.82
37,sovetskaya,80,ru,2018-04-02 22:58:05,86,44.78,41.17,44.32,20.51
38,mehamn,75,no,2018-04-02 22:20:00,63,71.03,27.85,30.2,16.11
39,souillac,75,mu,2018-04-02 22:00:00,88,-20.52,57.52,80.6,14.99
40,ancud,92,cl,2018-04-02 22:58:06,96,-41.87,-73.83,55.84,4.97
41,hermanus,68,za,2018-04-02 22:58:06,98,-34.42,19.24,60.97,5.08
42,ushuaia,75,ar,2018-04-02 22:00:00,86,-54.81,-68.31,41.0,16.11
43,east london,76,za,2018-04-02 22:58:06,100,-33.02,27.91,73.66,12.46
44,qujing,8,cn,2018-04-02 22:58:06,45,25.49,103.8,70.87,8.43
45,port elizabeth,40,za,2018-04-02 22:21:00,94,-33.92,25.57,68.0,12.75
46,norman wells,75,ca,2018-04-02 22:00:00,55,65.28,-126.83,8.6,9.17
47,ocos,20,gt,2018-04-02 22:00:00,83,14.51,-92.19,78.8,3.4
48,safford,1,us,2018-04-02 21:51:00,7,32.83,-109.71,77.0,13.87
49,georgetown,88,sh,2018-04-02 22:58:08,100,-7.93,-14.42,78.79,11.45
50,cherskiy,0,ru,2018-04-02 22:58:08,77,68.75,161.3,34.33,6.76
51,ondangwa,92,na,2018-04-02 22:58:09,96,-17.91,15.98,63.67,3.06
52,salalah,75,om,2018-04-02 21:50:00,83,17.01,54.1,78.8,5.82
53,hithadhoo,92,mv,2018-04-02 22:58:09,100,-0.6,73.08,84.01,5.75
54,kapaa,90,us,2018-04-02 21:56:00,74,22.08,-159.32,78.8,17.22
55,saint-augustin,75,ca,2018-04-02 22:00:00,75,45.63,-73.98,35.6,5.82
56,saint-philippe,0,re,2018-04-02 22:30:00,69,-21.36,55.77,77.0,5.82
57,touros,88,br,2018-04-02 22:58:19,90,-5.2,-35.46,79.96,7.76
58,nikolskoye,90,ru,2018-04-02 22:30:00,99,59.7,30.79,32.0,8.95
59,kamenka,80,ru,2018-04-02 22:58:11,93,53.19,44.05,34.24,16.71
60,qaanaaq,0,gl,2018-04-02 22:58:11,82,77.48,-69.36,-5.36,8.66
61,taltal,0,cl,2018-04-02 22:58:11,97,-25.41,-70.49,53.41,1.16
62,amahai,36,id,2018-04-02 22:58:11,100,-3.31,129.0,83.02,5.53
63,manggar,24,id,2018-04-02 22:58:20,95,-2.88,108.27,84.91,4.52
64,grafton,1,us,2018-04-02 22:55:00,61,48.41,-97.41,17.6,18.34
65,xapuri,68,br,2018-04-02 22:58:12,89,-10.65,-68.5,77.26,0.94
66,port macquarie,40,au,2018-04-02 22:00:00,88,-31.43,152.91,73.4,1.12
67,nishihara,40,jp,2018-04-02 22:00:00,56,35.74,139.53,68.0,5.82
68,wuzhou,20,cn,2018-04-02 22:58:13,74,23.48,111.3,81.04,3.62
69,gavle,32,se,2018-04-02 22:58:13,93,60.67,17.14,26.59,7.09
70,khatanga,48,ru,2018-04-02 22:58:14,87,71.98,102.47,-6.17,4.63
71,flin flon,32,ca,2018-04-02 22:58:22,69,54.77,-101.88,4.27,2.84
72,carnarvon,0,au,2018-04-02 22:58:23,74,-24.87,113.63,85.9,3.96
73,calvinia,56,za,2018-04-02 22:58:15,82,-31.47,19.78,53.23,2.95
74,lavrentiya,0,ru,2018-04-02 22:58:15,100,65.58,-170.99,29.92,2.06
75,rikitea,0,pf,2018-04-02 22:58:15,100,-23.12,-134.97,78.97,4.74
76,san cristobal,88,ec,2018-04-02 22:58:15,100,-1.02,-79.44,60.88,0.94
77,tignere,0,cm,2018-04-02 22:58:16,95,7.37,12.65,61.42,5.19
78,bodmin,90,gb,2018-04-02 21:50:00,100,50.47,-4.72,50.0,16.11
79,bambanglipuro,24,id,2018-04-02 22:58:16,84,-7.95,110.28,84.46,4.29
80,provideniya,90,ru,2018-04-02 22:30:00,100,64.42,-173.23,30.2,2.24
81,kaitangata,8,nz,2018-04-02 22:58:25,59,-46.28,169.85,60.88,26.33
82,la ronge,20,ca,2018-04-02 22:00:00,51,55.1,-105.3,10.4,4.7
83,paamiut,92,gl,2018-04-02 22:58:17,84,61.99,-49.67,33.97,6.53
84,iqaluit,90,ca,2018-04-02 22:00:00,92,63.75,-68.52,19.4,24.16
85,ilulissat,0,gl,2018-04-02 21:50:00,85,69.22,-51.1,12.2,10.29
86,misasi,75,tz,2018-04-02 22:00:00,88,-3.01,33.09,69.8,11.41
87,bethel,1,us,2018-04-02 21:53:00,69,60.79,-161.76,33.8,23.04
88,tongchuan,0,cn,2018-04-02 22:00:00,35,34.9,108.95,71.6,2.24
89,saint george,75,bm,2018-04-02 22:35:00,88,32.38,-64.68,66.2,1.12
90,biak,12,id,2018-04-02 22:54:58,100,-0.91,122.88,79.96,2.17
91,noumea,75,nc,2018-04-02 22:30:00,61,-22.28,166.46,82.4,17.22
92,maun,0,bw,2018-04-02 22:58:20,63,-19.99,23.42,62.86,5.3
93,saskylakh,0,ru,2018-04-02 22:54:14,76,71.97,114.09,-3.38,8.1
94,pundaguitan,8,ph,2018-04-02 22:58:20,99,6.37,126.17,83.65,3.29
95,karratha,0,au,2018-04-02 22:58:20,27,-20.74,116.85,101.56,9.89
96,thompson,5,ca,2018-04-02 22:00:00,48,55.74,-97.86,-4.01,3.36
97,nalut,12,ly,2018-04-02 22:58:21,48,31.86,10.98,62.77,12.91
98,erzin,44,ru,2018-04-02 22:58:21,48,50.26,95.16,21.82,2.95
99,pevek,0,ru,2018-04-02 22:58:21,79,69.7,170.27,34.33,11.45
100,los llanos de aridane,8,es,2018-04-02 22:30:00,67,28.66,-17.92,62.6,5.82
101,batouri,92,cm,2018-04-02 22:58:21,95,4.44,14.36,70.06,6.64
102,cabanas,40,cu,2018-04-02 21:55:00,83,22.98,-82.92,73.4,9.17
103,olga,32,ru,2018-04-02 22:58:31,39,43.74,135.29,47.83,7.99
104,egvekinot,0,ru,2018-04-02 22:58:22,92,66.32,-179.17,36.4,3.18
105,chulym,64,ru,2018-04-02 22:58:22,95,55.09,80.97,24.34,12.01
106,puerto ayacucho,56,ve,2018-04-02 22:58:31,97,5.66,-67.62,72.13,2.73
107,makakilo city,90,us,2018-04-02 22:25:00,100,21.35,-158.09,75.2,9.17
108,bredasdorp,68,za,2018-04-02 22:58:23,97,-34.53,20.04,66.1,11.23
109,sikonge,44,tz,2018-04-02 22:58:23,96,-5.63,32.75,60.97,1.72
110,tuatapere,20,nz,2018-04-02 22:58:24,95,-46.13,167.69,57.91,25.43
111,khorixas,92,na,2018-04-02 22:58:24,98,-20.37,14.96,63.76,3.4
112,santa maria,75,cv,2018-04-02 22:00:00,68,16.6,-22.9,68.0,14.99
113,butaritari,100,ki,2018-04-02 22:58:33,100,3.07,172.79,82.84,11.68
114,talnakh,12,ru,2018-04-02 22:58:25,63,69.49,88.39,-13.82,3.4
115,baykit,12,ru,2018-04-02 22:58:25,78,61.68,96.39,14.98,5.19
116,atuona,0,pf,2018-04-02 22:58:34,100,-9.8,-139.03,81.85,15.7
117,mount isa,40,au,2018-04-02 22:30:00,30,-20.73,139.49,93.2,11.41
118,thinadhoo,80,mv,2018-04-02 22:54:12,98,0.53,72.93,85.81,4.85
119,poya,76,nc,2018-04-02 22:58:26,95,-21.35,165.16,79.42,20.18
120,hofn,8,is,2018-04-02 22:58:26,100,64.25,-15.21,25.42,18.5
121,mahebourg,75,mu,2018-04-02 22:00:00,88,-20.41,57.7,80.6,14.99
122,santa rosalia,36,mx,2018-04-02 22:58:35,42,28.71,-111.6,67.45,6.87
123,soldotna,1,us,2018-04-02 21:56:00,20,60.48,-151.07,41.0,9.17
124,mount gambier,0,au,2018-04-02 22:58:36,66,-37.83,140.78,68.17,4.29
125,poum,100,nc,2018-04-02 22:58:36,100,-20.23,164.02,78.07,15.59
126,severo-kurilsk,92,ru,2018-04-02 22:58:28,97,50.68,156.12,31.54,17.49
127,hobart,40,au,2018-04-02 22:30:00,37,-42.88,147.33,71.6,19.46
128,cabo san lucas,5,mx,2018-04-02 21:43:00,36,22.89,-109.91,80.6,12.75
129,la celia,40,co,2018-04-02 22:00:00,93,5.0,-76.0,66.2,4.7
130,lipin bor,88,ru,2018-04-02 22:58:32,94,60.26,37.97,35.05,20.85
131,tasiilaq,64,gl,2018-04-02 21:50:00,85,65.61,-37.64,17.6,11.34
132,campoverde,75,pe,2018-04-02 22:00:00,88,-8.48,-74.81,77.0,1.16
133,castro,80,cl,2018-04-02 22:58:41,100,-42.48,-73.76,54.49,3.18
134,waingapu,20,id,2018-04-02 22:58:41,78,-9.65,120.26,85.81,3.85
135,kodiak,90,us,2018-04-02 22:27:00,100,39.95,-94.76,33.8,6.93
136,martapura,36,id,2018-04-02 22:58:42,89,-3.41,114.85,83.2,3.62
137,upernavik,0,gl,2018-04-02 22:58:42,87,72.79,-56.15,12.37,11.01
138,lindi,92,tz,2018-04-02 22:58:34,97,-10.0,39.71,73.75,2.84
139,chimbote,12,pe,2018-04-02 22:58:43,91,-9.08,-78.59,67.9,6.53
140,kysyl-syr,0,ru,2018-04-02 22:58:35,48,63.9,122.77,9.67,10.45
141,port lincoln,0,au,2018-04-02 22:58:35,85,-34.72,135.86,67.63,5.75
142,puerto ayora,44,ec,2018-04-02 22:58:44,100,-0.74,-90.35,76.36,5.97
143,mersing,12,my,2018-04-02 22:58:36,73,2.43,103.84,86.26,9.78
144,maputo,48,mz,2018-04-02 22:58:36,93,-25.97,32.57,67.18,2.84
145,klaksvik,80,fo,2018-04-02 22:20:00,79,62.23,-6.59,28.4,11.41
146,havre-saint-pierre,40,ca,2018-04-02 22:00:00,57,50.23,-63.6,17.6,4.7
147,chuy,76,uy,2018-04-02 22:58:37,98,-33.69,-53.46,66.82,4.18
148,bikaner,44,in,2018-04-02 22:58:37,64,28.02,73.32,74.38,12.68
149,harper,56,lr,2018-04-02 22:58:46,98,4.38,-7.71,82.48,11.68
150,muisne,100,ec,2018-04-02 22:58:38,96,0.61,-80.02,72.76,2.95
151,keflavik,90,is,2018-04-02 22:00:00,92,64.0,-22.56,30.2,13.87
152,vostok,76,ru,2018-04-02 22:58:39,54,46.45,135.83,31.54,7.76
153,itarema,32,br,2018-04-02 22:58:48,95,-2.92,-39.92,75.37,4.07
154,somerset,1,us,2018-04-02 22:35:00,100,41.77,-71.13,33.8,5.97
155,isangel,36,vu,2018-04-02 22:58:40,100,-19.55,169.27,80.32,14.81
156,paita,24,pe,2018-04-02 22:58:40,83,-5.09,-81.11,70.24,4.29
157,kiama,75,au,2018-04-02 22:00:00,77,-34.67,150.86,68.0,3.36
158,sitka,0,us,2018-04-02 22:58:49,30,37.17,-99.65,67.9,18.16
159,lufilufi,75,ws,2018-04-02 22:00:00,66,-13.87,-171.6,89.6,10.29
160,victoria,75,sc,2018-04-02 22:00:00,94,-4.62,55.45,80.6,2.24
161,ponta do sol,20,cv,2018-04-02 22:58:42,100,17.2,-25.09,67.9,15.48
162,grand-santi,92,gf,2018-04-02 22:58:42,96,4.27,-54.38,74.65,2.39
163,okhotsk,80,ru,2018-04-02 22:58:42,76,59.36,143.24,27.76,19.17
164,talara,24,pe,2018-04-02 22:58:42,83,-4.58,-81.27,70.24,4.29
165,khovu-aksy,64,ru,2018-04-02 22:58:51,44,51.13,93.72,20.38,3.62
166,saldanha,36,za,2018-04-02 22:58:51,98,-33.01,17.94,58.81,6.42
167,tiksi,24,ru,2018-04-02 22:54:19,89,71.64,128.87,13.09,5.97
168,vitre,75,fr,2018-04-02 22:30:00,93,48.12,-1.21,50.0,11.41
169,alta floresta,80,br,2018-04-02 22:58:43,98,-9.87,-56.08,71.41,2.28
170,avarua,75,ck,2018-04-02 22:00:00,78,-21.21,-159.78,80.6,5.82
171,sambava,92,mg,2018-04-02 22:58:53,100,-14.27,50.17,76.27,10.45
172,vieux-habitants,40,gp,2018-04-02 22:30:00,88,16.06,-61.77,73.4,2.24
173,port augusta,0,au,2018-04-02 22:00:00,60,-32.49,137.76,68.0,13.87
174,varhaug,0,no,2018-04-02 21:50:00,64,58.61,5.65,35.6,2.24
175,tuktoyaktuk,90,ca,2018-04-02 22:00:00,70,69.44,-133.03,1.4,10.29
176,nha trang,0,vn,2018-04-02 22:58:54,81,12.24,109.19,79.06,6.64
177,cedral,0,mx,2018-04-02 22:58:46,31,23.82,-100.72,58.45,2.73
178,ahipara,8,nz,2018-04-02 22:58:55,71,-35.17,173.16,71.86,7.54
179,nome,90,us,2018-04-02 22:15:00,83,30.04,-94.42,73.4,8.05
180,pitimbu,0,br,2018-04-02 22:00:00,83,-7.47,-34.81,77.0,4.7
181,valparaiso,90,cl,2018-04-02 22:00:00,82,-33.04,-71.63,57.2,4.7
182,belyy yar,76,ru,2018-04-02 22:30:00,67,53.6,91.39,23.0,4.47
183,katsuura,20,jp,2018-04-02 22:00:00,53,33.93,134.5,71.6,10.29
184,podgornoye,80,ru,2018-04-02 22:58:57,82,57.79,82.64,24.88,6.64
185,lorengau,24,pg,2018-04-02 22:54:39,100,-2.02,147.27,81.85,8.55
186,castries,40,lc,2018-04-02 22:30:00,83,14.0,-61.01,80.6,5.82
187,shellbrook,40,ca,2018-04-02 22:00:00,61,53.22,-106.39,14.0,2.24
188,sandpoint,1,us,2018-04-02 22:35:00,63,48.28,-116.55,37.4,8.05
189,williston,1,us,2018-04-02 22:55:00,78,48.15,-103.62,17.6,6.93
190,dikson,36,ru,2018-04-02 22:58:50,83,73.51,80.55,0.94,17.83
191,huilong,0,cn,2018-04-02 22:58:50,82,31.15,106.5,75.37,4.18
192,nanortalik,32,gl,2018-04-02 22:58:50,100,60.14,-45.24,32.98,23.42
193,yumen,12,cn,2018-04-02 22:58:59,41,40.29,97.04,41.62,11.9
194,torbay,75,ca,2018-04-02 22:00:00,86,47.66,-52.73,28.4,8.05
195,jalu,0,ly,2018-04-02 22:58:51,72,29.03,21.55,53.5,7.54
196,kutum,0,sd,2018-04-02 22:59:00,26,14.2,24.66,52.06,7.31
197,ailigandi,8,pa,2018-04-02 22:58:52,75,9.23,-78.02,75.91,6.2
198,cururupu,68,br,2018-04-02 22:59:00,93,-1.82,-44.87,77.89,4.07
199,xuchang,0,cn,2018-04-02 22:00:00,59,34.03,113.82,64.4,22.37
200,puerto escondido,56,mx,2018-04-02 22:58:52,100,15.86,-97.07,84.01,2.73
201,belaya kholunitsa,56,ru,2018-04-02 22:59:01,89,58.84,50.85,31.45,14.7
202,vila franca do campo,75,pt,2018-04-02 22:30:00,67,37.72,-25.43,59.0,18.34
203,jasper,64,ca,2018-04-02 22:58:53,66,52.88,-118.08,14.8,1.61
204,sigli,24,id,2018-04-02 22:58:53,98,5.38,95.96,81.31,1.72
205,mahasamund,0,in,2018-04-02 22:58:54,44,21.11,82.1,81.94,3.62
206,trinidad,80,bo,2018-04-02 22:59:02,97,-14.83,-64.9,72.22,4.29
207,san patricio,0,mx,2018-04-02 22:58:54,80,19.22,-104.7,69.16,3.4
208,alofi,88,nu,2018-04-02 22:00:00,78,-19.06,-169.92,82.4,5.82
209,fresnillo,0,mx,2018-04-02 22:59:04,22,23.17,-102.87,63.67,12.8
210,xinyu,92,cn,2018-04-02 22:59:04,100,27.8,114.93,70.15,5.75
211,grindavik,90,is,2018-04-02 22:00:00,92,63.84,-22.43,30.2,13.87
212,kalakamati,0,bw,2018-04-02 22:58:56,74,-20.59,27.31,59.35,11.45
213,leningradskiy,0,ru,2018-04-02 22:58:56,90,69.38,178.42,28.21,7.31
214,sibolga,56,id,2018-04-02 22:59:05,92,1.74,98.78,77.08,2.17
215,jumla,8,np,2018-04-02 22:58:57,71,29.28,82.18,36.76,1.95
216,cabedelo,0,br,2018-04-02 22:00:00,83,-6.97,-34.84,77.0,4.7
217,ketchikan,90,us,2018-04-02 22:08:00,86,55.34,-131.65,37.4,8.05
218,matamba,68,tz,2018-04-02 22:58:57,89,-8.97,33.96,57.37,3.62
219,kushiro,75,jp,2018-04-02 22:00:00,87,43.11,144.15,44.6,3.36
220,marti,75,cu,2018-04-02 21:50:00,73,21.15,-77.45,75.2,5.82
221,itacoatiara,48,br,2018-04-02 22:59:07,100,-3.14,-58.44,73.39,2.73
222,cidreira,88,br,2018-04-02 22:59:07,97,-30.17,-50.22,68.62,7.54
223,idukki,24,in,2018-04-02 22:58:59,86,9.85,76.97,77.44,2.73
224,gazojak,56,tm,2018-04-02 22:59:08,72,41.19,61.4,46.66,9.78
225,bambous virieux,75,mu,2018-04-02 22:00:00,88,-20.34,57.76,80.6,14.99
226,strezhevoy,0,ru,2018-04-02 22:30:00,77,60.73,77.6,3.2,6.71
227,murray,90,us,2018-04-02 22:15:00,59,40.67,-111.89,42.8,21.92
228,ngunguru,0,nz,2018-04-02 22:59:01,100,-35.62,174.5,68.53,2.28
229,lompoc,90,us,2018-04-02 22:35:00,87,34.64,-120.46,57.2,11.41
230,margate,32,za,2018-04-02 22:59:10,92,-30.86,30.37,74.11,4.52
231,the valley,20,ai,2018-04-02 22:00:00,74,18.22,-63.06,78.8,4.7
232,okha,0,ru,2018-04-02 22:59:10,89,53.59,142.95,30.46,19.06
233,kahului,90,us,2018-04-02 22:41:00,94,20.89,-156.47,77.0,19.46
234,uglegorsk,0,ru,2018-04-02 22:59:02,53,49.08,142.06,33.52,12.46
235,kandi,8,bj,2018-04-02 22:59:03,67,11.13,2.93,73.57,8.43
236,carutapera,64,br,2018-04-02 22:59:12,95,-1.2,-46.02,78.43,4.41
237,iracoubo,92,gf,2018-04-02 22:59:04,91,5.48,-53.21,76.54,3.96
238,bhasawar,0,in,2018-04-02 22:59:04,47,27.03,77.03,79.51,4.07
239,hinche,80,ht,2018-04-02 22:59:04,96,19.14,-72.01,65.47,2.28
240,tha mai,75,th,2018-04-02 22:00:00,83,12.62,102.01,82.4,3.36
241,high level,75,ca,2018-04-02 22:00:00,53,58.52,-117.13,21.2,8.05
242,sao francisco,0,br,2018-04-02 22:00:00,100,-25.65,-53.85,68.0,4.18
243,chapais,90,ca,2018-04-02 22:07:00,85,49.78,-74.86,14.0,9.17
244,ginir,0,et,2018-04-02 22:59:14,88,7.14,40.71,48.82,2.62
245,sechura,64,pe,2018-04-02 22:59:06,83,-5.56,-80.82,71.59,6.76
246,ubinskoye,76,ru,2018-04-02 22:59:06,96,55.31,79.68,24.16,12.01
247,virginia beach,90,us,2018-04-02 22:54:00,87,36.85,-75.98,46.4,16.11
248,aguimes,20,es,2018-04-02 22:30:00,72,27.91,-15.45,64.4,12.75
249,wanaka,32,nz,2018-04-02 22:59:15,41,-44.7,169.14,58.36,7.65
250,aklavik,90,ca,2018-04-02 22:00:00,65,68.22,-135.01,5.0,6.93
251,chenzhou,76,cn,2018-04-02 22:59:07,72,25.81,113.03,81.04,7.31
252,skibbereen,90,ie,2018-04-02 22:00:00,100,51.55,-9.27,46.4,10.29
253,clyde river,90,ca,2018-04-02 22:37:00,92,70.47,-68.59,10.4,18.34
254,agogo,20,gh,2018-04-02 22:59:08,94,6.8,-1.08,72.67,4.97
255,mayo,40,ca,2018-04-02 22:00:00,31,63.59,-135.9,17.6,13.87
256,dunedin,0,nz,2018-04-02 22:59:17,42,-45.87,170.5,65.38,14.14
257,fare,80,pf,2018-04-02 22:59:09,99,-16.7,-151.02,82.3,11.01
258,fougamou,80,ga,2018-04-02 22:59:09,99,-1.22,10.59,72.31,2.73
259,taree,40,au,2018-04-02 22:00:00,88,-31.91,152.46,73.4,1.12
260,te anau,12,nz,2018-04-02 22:59:19,78,-45.41,167.72,52.42,15.93
261,lalmohan,20,bd,2018-04-02 22:59:19,62,22.34,90.74,85.09,5.97
262,lebu,8,cl,2018-04-02 22:59:11,98,-37.62,-73.65,57.1,9.78
263,nemuro,75,jp,2018-04-02 22:00:00,81,43.32,145.57,44.6,18.34
264,munster,75,de,2018-04-02 22:20:00,87,52.99,10.09,50.0,6.93
265,yar-sale,20,ru,2018-04-02 22:59:20,67,66.83,70.83,-0.23,14.25
266,coihaique,75,cl,2018-04-02 22:00:00,93,-45.58,-72.07,55.4,8.05
267,shintomi,20,jp,2018-04-02 22:00:00,73,32.08,131.47,69.8,6.93
268,pokhara,12,np,2018-04-02 22:54:51,60,28.21,83.99,60.52,2.62
269,newport,1,us,2018-04-02 22:35:00,100,41.49,-71.31,35.6,7.76
270,port blair,0,in,2018-04-02 22:58:17,100,11.67,92.75,83.92,8.32
271,amuntai,56,id,2018-04-02 22:59:22,80,-2.42,115.25,84.19,2.95
272,manaure,32,co,2018-04-02 22:59:14,94,11.78,-72.45,78.16,18.5
273,hasaki,20,jp,2018-04-02 22:00:00,64,35.73,140.83,68.0,4.7
274,dingle,80,ie,2018-04-02 22:59:15,94,52.14,-10.27,46.66,5.53
275,tarakan,20,id,2018-04-02 22:59:23,92,3.3,117.63,83.47,2.28
276,tiznit,92,ma,2018-04-02 22:59:24,97,29.7,-9.73,57.46,2.62
277,atar,0,mr,2018-04-02 22:59:16,39,20.52,-13.05,59.44,6.76
278,broome,0,au,2018-04-02 22:30:00,41,-17.97,122.23,95.0,9.17
279,anadyr,40,ru,2018-04-02 22:30:00,92,64.73,177.51,26.6,4.47
280,sainte-maxime,0,fr,2018-04-02 22:30:00,81,43.31,6.64,55.4,3.36
281,ikom,76,ng,2018-04-02 22:59:17,92,5.96,8.72,73.66,3.29
282,iquitos,75,pe,2018-04-02 22:17:00,94,-3.75,-73.25,75.2,9.17
283,kavaratti,24,in,2018-04-02 22:59:26,100,10.57,72.64,84.91,5.97
284,cartagena,44,es,2018-04-02 22:59:17,86,37.63,-1.0,42.52,2.51
285,sao sebastiao do paraiso,64,br,2018-04-02 22:59:26,93,-20.92,-46.99,66.37,3.06
286,sunrise manor,1,us,2018-04-02 22:56:00,11,36.21,-115.07,82.4,9.17
287,ranong,0,th,2018-04-02 22:00:00,70,9.96,98.62,86.0,5.82
288,talas,36,kg,2018-04-02 22:54:42,78,42.52,72.24,37.21,2.62
289,springbok,80,za,2018-04-02 22:59:18,88,-29.67,17.88,57.82,2.84
290,portel,68,br,2018-04-02 22:59:27,90,-1.94,-50.82,77.44,7.54
291,tazovskiy,24,ru,2018-04-02 22:59:19,85,67.47,78.7,-9.32,12.68
292,honiara,80,sb,2018-04-02 22:59:19,93,-9.43,159.96,79.87,2.73
293,mantua,20,cu,2018-04-02 22:59:28,81,22.29,-84.28,71.41,3.51
294,aykhal,8,ru,2018-04-02 22:59:20,70,65.95,111.51,8.05,6.87
295,vega de alatorre,0,mx,2018-04-02 22:59:20,78,20.03,-96.65,73.21,7.31
296,kiruna,88,se,2018-04-02 22:20:00,84,67.86,20.23,5.0,4.7
297,qostanay,75,kz,2018-04-02 22:30:00,92,53.17,63.58,17.6,2.24
298,huarmey,56,pe,2018-04-02 22:59:30,73,-10.07,-78.15,66.28,3.18
299,geraldton,0,au,2018-04-02 22:30:00,54,-28.77,114.6,84.2,10.29
300,nuqui,36,co,2018-04-02 22:59:22,100,5.71,-77.27,77.17,3.62
301,yingkou,92,cn,2018-04-02 22:59:22,47,40.67,122.24,45.22,24.09
302,altay,80,cn,2018-04-02 22:59:31,77,47.83,88.13,19.21,2.06
303,oktyabrskoye,76,ru,2018-04-02 22:59:23,79,56.73,85.44,25.69,5.86
304,imbituba,20,br,2018-04-02 22:00:00,88,-28.24,-48.67,73.4,3.36
305,valley city,90,us,2018-04-02 22:55:00,85,46.92,-98.0,17.6,18.34
306,gedinne,20,be,2018-04-02 22:50:00,87,49.98,4.94,50.0,9.17
307,boralday,90,kz,2018-04-02 22:30:00,76,43.36,76.86,41.0,8.95
308,soyo,92,ao,2018-04-02 22:59:24,96,-6.13,12.37,76.45,2.06
309,northam,0,au,2018-04-02 22:30:00,40,-31.65,116.67,87.8,11.41
310,chiredzi,0,zw,2018-04-02 22:59:25,88,-21.05,31.67,63.22,2.73
311,kailua,90,us,2018-04-02 22:25:00,94,21.39,-157.74,75.2,13.87
312,selkirk,20,ca,2018-04-02 22:00:00,55,50.15,-96.88,8.6,9.17
313,tessalit,0,ml,2018-04-02 22:59:34,33,20.2,1.01,63.67,3.4
314,garmsar,0,ir,2018-04-02 22:59:26,63,35.22,52.34,43.51,1.39
315,oistins,40,bb,2018-04-02 22:00:00,83,13.07,-59.53,77.0,16.11
316,concarneau,88,fr,2018-04-02 22:30:00,93,47.88,-3.92,51.8,14.99
317,koslan,92,ru,2018-04-02 22:59:27,86,63.46,48.9,33.52,11.01
318,brownwood,1,us,2018-04-02 22:15:00,88,31.71,-98.99,64.4,5.82
319,mitu,56,co,2018-04-02 22:59:27,97,1.2,-70.17,73.66,2.06
320,arona,75,es,2018-04-02 22:30:00,72,28.1,-16.68,66.2,4.63
321,tolosa,0,es,2018-04-02 22:30:00,54,43.14,-2.07,60.8,2.24
322,morehead,20,pg,2018-04-02 22:59:37,97,-8.71,141.64,85.27,7.87
323,srednekolymsk,8,ru,2018-04-02 22:59:37,69,67.46,153.71,36.76,6.64
324,cheltenham,75,gb,2018-04-02 22:20:00,100,51.9,-2.07,48.2,5.82
325,abalak,8,ne,2018-04-02 22:59:29,57,15.46,6.28,65.56,2.95
326,kadyy,92,ru,2018-04-02 22:59:30,93,57.79,43.19,36.85,19.62
327,portland,56,au,2018-04-02 22:59:30,84,-33.35,149.98,65.29,3.06
328,lethem,44,gy,2018-04-02 22:59:30,68,3.38,-59.8,81.22,13.69
329,antofagasta,0,cl,2018-04-02 22:00:00,77,-23.65,-70.4,64.4,3.36
330,solnechnyy,76,ru,2018-04-02 22:59:31,55,50.72,136.64,29.56,12.46
331,grozesti,0,ro,2018-04-02 22:30:00,74,44.65,23.32,37.4,3.36
332,vila velha,40,br,2018-04-02 23:00:00,88,-3.71,-38.6,78.8,3.36
333,villa carlos paz,0,ar,2018-04-02 22:00:00,93,-31.42,-64.5,55.4,5.82
334,tobias barreto,8,br,2018-04-02 22:59:32,89,-11.19,-38.0,72.94,4.41
335,ceres,36,za,2018-04-02 22:59:41,100,-33.37,19.31,54.13,2.17
336,sinnamary,88,gf,2018-04-02 22:59:32,100,5.38,-52.96,79.06,8.99
337,tarsus,40,tr,2018-04-02 22:20:00,93,36.92,34.88,53.6,2.24
338,hilo,90,us,2018-04-02 21:53:00,61,19.71,-155.08,80.6,16.37
339,sabang,0,id,2018-04-02 22:59:33,100,1.17,120.82,82.12,4.97
340,petropavlovsk-kamchatskiy,24,ru,2018-04-02 22:30:00,58,53.05,158.65,30.2,11.18
341,naze,20,jp,2018-04-02 22:00:00,57,28.37,129.48,75.2,12.75
342,drabiv,32,ua,2018-04-02 22:59:34,91,49.96,32.14,36.94,12.46
343,bollnas,24,se,2018-04-02 22:59:43,80,61.35,16.39,24.79,4.74
344,lagoa,0,pt,2018-04-02 22:30:00,100,37.14,-8.45,57.2,4.7
345,zeya,48,ru,2018-04-02 22:59:35,41,53.74,127.27,20.56,11.68
346,shitanjing,36,cn,2018-04-02 22:59:43,57,39.23,106.34,49.36,2.73
347,phalaborwa,0,za,2018-04-02 22:59:44,96,-23.95,31.14,64.57,5.53
348,santo augusto,8,br,2018-04-02 22:59:36,94,-27.85,-53.78,61.87,3.74
349,kaitong,24,cn,2018-04-02 22:59:36,40,44.81,123.15,42.07,14.7
350,sulangan,24,ph,2018-04-02 22:59:45,100,11.14,123.72,80.23,7.2
351,vestmannaeyjar,92,is,2018-04-02 22:59:45,100,63.44,-20.27,34.42,12.8
352,chudniv,0,ua,2018-04-02 22:59:37,92,50.05,28.12,31.0,7.99
353,vetluga,92,ru,2018-04-02 22:59:46,96,57.85,45.78,36.31,10.0
354,tautira,75,pf,2018-04-02 22:30:00,69,-17.73,-149.15,82.4,10.29
355,dzhebariki-khaya,80,ru,2018-04-02 22:59:38,52,62.22,135.8,33.52,4.29
356,kant,48,kg,2018-04-02 22:59:38,91,42.89,74.85,32.89,1.5
357,ribeira grande,48,pt,2018-04-02 22:59:26,100,38.52,-28.7,60.43,27.34
358,portales,1,us,2018-04-02 21:58:00,8,34.19,-103.33,69.8,12.75
359,oussouye,0,sn,2018-04-02 22:59:38,97,12.49,-16.54,69.97,18.28
360,luderitz,80,na,2018-04-02 22:00:00,77,-26.65,15.16,64.4,2.24
361,deputatskiy,92,ru,2018-04-02 22:59:39,83,69.3,139.9,16.33,3.96
362,vysoke,80,ua,2018-04-02 22:59:48,88,47.94,38.06,39.82,10.11
363,havelock,90,us,2018-04-02 22:54:00,81,34.88,-76.9,55.4,13.87
364,moussoro,0,td,2018-04-02 22:59:40,18,13.64,16.49,70.06,9.66
365,balikpapan,24,id,2018-04-02 22:59:48,100,-1.24,116.86,84.1,2.73
366,batemans bay,36,au,2018-04-02 22:59:40,87,-35.71,150.18,67.72,3.18
367,melilla,0,es,2018-04-02 22:30:00,72,35.29,-2.94,60.8,3.36
368,brcko,0,ba,2018-04-02 22:30:00,93,44.87,18.81,41.0,1.12
369,russkaya polyana,0,ru,2018-04-02 22:59:41,91,53.78,73.88,22.72,11.01
370,kieta,24,pg,2018-04-02 22:59:49,96,-6.22,155.63,83.02,10.0
371,tuy hoa,68,vn,2018-04-02 22:59:41,90,13.08,109.3,76.09,5.08
372,orsha,80,by,2018-04-02 22:59:41,88,54.51,30.43,31.36,16.71
373,sergeyevka,8,kz,2018-04-02 22:59:42,78,53.88,67.42,17.77,2.95
374,yuci,0,cn,2018-04-02 22:00:00,37,37.68,112.73,53.6,22.37
375,fortuna,1,us,2018-04-02 21:53:00,58,40.6,-124.16,53.6,11.41
376,shimoda,75,jp,2018-04-02 22:23:00,72,34.7,138.93,68.0,8.05
377,hambantota,24,lk,2018-04-02 22:59:51,100,6.12,81.12,83.11,6.42
378,quatre cocos,75,mu,2018-04-02 22:00:00,88,-20.21,57.76,80.6,14.99
379,tevriz,36,ru,2018-04-02 22:59:43,85,57.51,72.4,23.35,4.74
380,guarapari,0,br,2018-04-02 22:00:00,88,-20.67,-40.5,78.8,9.17
381,pisco,0,pe,2018-04-02 22:00:00,68,-13.71,-76.2,71.6,14.99
382,san vicente,56,ph,2018-04-02 22:59:52,98,14.11,122.87,81.04,11.9
383,el triunfo,90,ec,2018-04-02 22:00:00,93,-1.31,-78.41,53.6,2.24
384,shache,36,cn,2018-04-02 22:59:53,35,38.42,77.24,54.31,5.64
385,praia da vitoria,40,pt,2018-04-02 22:00:00,71,38.73,-27.07,57.2,32.48
386,brainerd,90,us,2018-04-02 22:49:00,86,46.36,-94.2,28.4,3.36
387,korem,0,et,2018-04-02 22:59:54,87,12.51,39.52,47.11,1.16
388,kande,0,tg,2018-04-02 22:59:46,79,9.96,1.04,72.4,5.53
389,homer,1,us,2018-04-02 21:53:00,20,59.64,-151.54,44.6,11.41
390,sergiyevsk,32,ru,2018-04-02 22:59:47,90,53.94,51.16,29.92,13.13
391,aswan,0,eg,2018-04-02 22:00:00,22,24.09,32.9,68.0,3.36
392,acapulco,5,mx,2018-04-02 21:45:00,88,16.86,-99.88,77.0,3.36
393,dudinka,36,ru,2018-04-02 22:59:56,63,69.41,86.18,-7.97,4.74
394,san ramon,20,bo,2018-04-02 22:59:57,91,-13.27,-64.62,75.1,2.73
395,suez,76,eg,2018-04-02 22:59:48,91,29.97,32.54,49.36,3.29
396,flinders,75,au,2018-04-02 22:00:00,77,-34.58,150.85,68.0,3.36
397,is,88,ru,2018-04-02 22:59:57,84,58.79,59.72,22.09,3.4
398,cumpas,0,mx,2018-04-02 22:59:49,20,30.0,-109.78,67.81,4.29
399,antigonish,1,ca,2018-04-02 22:00:00,68,45.62,-61.99,24.8,3.36
400,boende,8,cd,2018-04-02 22:59:50,97,-0.28,20.88,73.12,3.18
401,chegdomyn,68,ru,2018-04-02 22:59:50,47,51.13,133.04,20.74,12.46
402,kargasok,76,ru,2018-04-02 22:59:50,86,59.06,80.87,19.57,7.76
403,lichtenfels,92,de,2018-04-02 22:59:51,96,50.15,11.06,43.51,11.12
404,jishou,44,cn,2018-04-02 22:59:51,96,28.26,109.7,72.04,3.85
405,kultuk,0,ru,2018-04-02 22:59:51,52,51.73,103.71,24.61,2.62
406,bilibino,8,ru,2018-04-02 23:00:00,76,68.06,166.44,37.93,5.41
407,tilichiki,92,ru,2018-04-02 22:59:52,94,60.47,166.1,35.14,11.68
408,orje,24,no,2018-04-02 22:20:00,100,59.48,11.66,21.2,2.24
409,cap malheureux,75,mu,2018-04-02 22:00:00,88,-19.98,57.61,80.6,14.99
410,mwinilunga,44,zm,2018-04-02 23:00:01,98,-11.73,24.43,61.06,2.39
411,mucurapo,20,tt,2018-04-02 22:00:00,83,10.67,-61.53,77.0,3.36
412,saint-pierre,24,pm,2018-04-02 22:59:53,100,46.77,-56.17,31.09,20.74
413,naryan-mar,76,ru,2018-04-02 22:59:53,79,67.67,53.09,16.06,19.51
414,iskateley,76,ru,2018-04-02 22:59:53,78,67.68,53.15,14.89,18.95
415,meulaboh,0,id,2018-04-02 22:59:54,100,4.14,96.13,82.3,3.62
416,ulladulla,75,au,2018-04-02 22:00:00,77,-35.36,150.48,68.0,3.36
417,cacu,48,br,2018-04-02 22:59:54,92,-18.56,-51.13,70.42,2.73
418,maragogi,92,br,2018-04-02 23:00:03,99,-9.01,-35.22,76.45,0.94
419,mackay,75,au,2018-04-02 22:00:00,88,-21.15,149.2,77.0,25.28
420,coquimbo,0,cl,2018-04-02 22:00:00,82,-29.95,-71.34,57.2,2.24
421,darlawn,64,in,2018-04-02 23:00:04,72,24.02,92.93,75.46,1.72
422,cananeia,36,br,2018-04-02 23:00:05,100,-25.01,-47.93,74.83,4.18
423,batagay-alyta,56,ru,2018-04-02 22:55:54,84,67.8,130.41,16.69,4.07
424,camacha,40,pt,2018-04-02 22:30:00,87,33.08,-16.33,60.8,11.41
425,port hedland,0,au,2018-04-02 22:30:00,26,-20.31,118.58,102.2,6.93
426,gizo,20,sb,2018-04-02 22:59:58,100,-8.1,156.84,84.91,10.0
427,kruisfontein,100,za,2018-04-02 22:59:58,93,-34.0,24.73,68.53,7.2
428,krivosheino,76,ru,2018-04-02 23:00:06,94,57.34,83.93,21.82,8.43
429,ibipeba,80,br,2018-04-02 22:59:58,63,-11.64,-42.01,75.19,5.97
430,papillion,90,us,2018-04-02 22:54:00,92,41.15,-96.04,32.0,12.75
431,nizhniy chir,92,ru,2018-04-02 23:00:07,96,48.36,43.08,42.97,12.57
432,port hardy,90,ca,2018-04-02 22:00:00,80,50.7,-127.42,39.2,4.7
433,wattegama,8,lk,2018-04-02 22:59:59,89,7.35,80.68,77.89,3.85
434,inuvik,90,ca,2018-04-02 22:00:00,65,68.36,-133.71,5.0,6.93
435,chicama,75,pe,2018-04-02 22:00:00,93,-7.84,-79.15,66.2,8.05
436,clovis,20,us,2018-04-02 21:56:00,46,36.83,-119.7,75.2,8.05
437,cayenne,75,gf,2018-04-02 22:30:00,88,4.94,-52.33,78.8,6.93
438,fort-shevchenko,8,kz,2018-04-02 23:00:01,83,44.51,50.26,47.11,22.3
439,belmonte,68,br,2018-04-02 23:00:10,98,-26.84,-53.58,64.21,3.85
440,awbari,0,ly,2018-04-02 23:00:11,31,26.59,12.77,63.67,12.01
441,dombarovskiy,0,ru,2018-04-02 22:56:03,67,50.76,59.54,18.04,7.43
442,alice springs,0,au,2018-04-02 22:00:00,26,-23.7,133.88,82.4,19.46
443,bontang,48,id,2018-04-02 22:55:56,100,0.12,117.47,81.31,4.07
444,mbanza-ngungu,92,cd,2018-04-02 23:00:13,94,-5.25,14.87,72.94,3.96
445,roma,0,au,2018-04-02 23:00:14,51,-26.57,148.79,82.21,11.79
446,port-gentil,100,ga,2018-04-02 23:00:15,100,-0.72,8.78,79.96,4.18
447,rio gallegos,0,ar,2018-04-02 22:00:00,75,-51.62,-69.22,42.8,16.11
448,dongsheng,8,cn,2018-04-02 23:00:08,79,29.72,112.52,79.6,10.78
449,natal,40,br,2018-04-02 23:00:00,88,-5.81,-35.21,78.8,4.7
450,rocha,76,uy,2018-04-02 23:00:17,96,-34.48,-54.34,63.85,8.99
451,belawan,68,id,2018-04-02 23:00:09,89,-0.59,114.46,79.96,2.73
452,vao,80,nc,2018-04-02 23:00:18,100,-22.67,167.48,78.07,19.73
453,manicaragua,20,cu,2018-04-02 21:59:00,83,22.14,-79.97,73.4,9.17
454,boa vista,75,br,2018-04-02 23:00:00,69,2.82,-60.67,82.4,16.11
455,san andres,40,co,2018-04-02 22:00:00,83,8.22,-76.58,78.8,9.17
456,teguldet,80,ru,2018-04-02 23:00:15,80,57.31,88.17,25.42,6.2
457,ejea de los caballeros,40,es,2018-04-02 22:30:00,62,42.13,-1.14,51.8,6.93
458,kisesa,75,tz,2018-04-02 22:00:00,88,-2.55,33.05,69.8,11.41
459,fuyang,24,cn,2018-04-02 23:00:24,85,32.89,115.81,78.97,5.64
460,nsoko,0,sz,2018-04-02 23:00:16,95,-27.03,31.95,64.3,2.95
461,pine bluff,1,us,2018-04-02 21:56:00,88,34.23,-92.0,64.4,3.36
462,glendive,90,us,2018-04-02 22:55:00,85,47.11,-104.71,17.6,20.8
463,montrose,75,us,2018-04-02 22:35:00,13,38.48,-107.88,68.0,18.34
464,batsfjord,20,no,2018-04-02 22:20:00,86,70.63,29.72,28.4,18.34
465,gonbad-e qabus,0,ir,2018-04-02 23:00:26,81,37.25,55.17,43.06,1.95
466,longyearbyen,20,sj,2018-04-02 21:50:00,60,78.22,15.64,10.4,20.8
467,bonavista,88,ca,2018-04-02 23:00:18,92,48.65,-53.11,29.56,13.47
468,sarangani,8,ph,2018-04-02 23:00:27,100,5.4,125.46,83.02,0.38
469,mendeleyevo,90,ru,2018-04-02 22:30:00,93,56.04,37.23,35.6,8.95
470,erzurum,75,tr,2018-04-02 22:20:00,98,39.91,41.27,33.8,6.93
471,martigny,80,ch,2018-04-02 22:20:00,61,46.1,7.07,50.0,2.24
472,san angelo,1,us,2018-04-02 21:51:00,72,31.46,-100.44,64.4,4.7
473,constitucion,5,mx,2018-04-02 22:00:00,11,23.99,-104.67,73.4,17.22
474,kati,0,ml,2018-04-02 22:30:00,42,12.75,-8.07,84.2,3.36
475,malyye derbety,92,ru,2018-04-02 23:00:22,87,47.95,44.68,44.59,13.8
476,marawi,0,sd,2018-04-02 23:00:22,42,18.48,31.82,55.12,4.41
477,guerrero negro,0,mx,2018-04-02 23:00:31,93,27.97,-114.04,57.46,8.77
478,berlevag,75,no,2018-04-02 22:20:00,63,70.86,29.09,30.2,16.11
479,abu kamal,32,sy,2018-04-02 23:00:32,37,34.45,40.92,49.36,6.31
480,rostovka,0,ru,2018-04-02 22:30:00,79,55.02,73.58,21.2,11.18
481,sohag,12,eg,2018-04-02 23:00:24,56,26.55,31.7,58.63,4.52
482,tabuk,0,sa,2018-04-02 22:00:00,32,28.38,36.58,68.0,4.7
483,saiki,20,jp,2018-04-02 22:00:00,72,32.95,131.89,62.6,3.36
484,schruns,75,at,2018-04-02 22:20:00,75,47.08,9.92,46.4,4.7
485,sao filipe,24,cv,2018-04-02 23:00:33,100,14.9,-24.5,68.53,14.36
486,prince albert,40,ca,2018-04-02 22:00:00,61,53.2,-105.75,14.0,2.24
487,lubango,32,ao,2018-04-02 23:00:25,100,-14.92,13.49,62.95,2.06
488,qasigiannguit,0,gl,2018-04-02 22:50:00,78,68.82,-51.19,12.2,9.17
489,sayyan,0,ye,2018-04-02 23:00:34,50,15.17,44.32,43.51,1.16
490,maceio,20,br,2018-04-02 23:00:00,94,-9.67,-35.74,75.2,3.36
491,adrar,40,dz,2018-04-02 22:00:00,55,27.87,-0.29,66.2,10.29
492,moyo,36,ug,2018-04-02 23:00:35,99,3.66,31.72,65.56,2.62
493,barreirinha,0,br,2018-04-02 23:00:35,98,-2.8,-57.07,72.49,2.51
494,takoradi,20,gh,2018-04-02 23:00:36,100,4.89,-1.75,80.41,6.42
495,kone,92,nc,2018-04-02 23:00:36,70,-21.06,164.87,78.25,7.43
496,kedrovyy,40,ru,2018-04-02 22:30:00,73,56.17,91.82,26.6,6.71
497,muros,75,es,2018-04-02 22:30:00,93,42.77,-9.06,50.0,14.99
498,amot,44,no,2018-04-02 23:00:29,73,59.57,7.99,6.25,2.17
499,kuah,75,my,2018-04-02 22:00:00,70,6.33,99.84,87.8,3.36
500,srandakan,24,id,2018-04-02 23:00:38,84,-7.94,110.25,84.46,4.29
501,sorland,8,no,2018-04-02 23:00:30,100,67.67,12.69,33.43,4.41
502,soria,24,es,2018-04-02 23:00:30,82,41.76,-2.46,44.95,9.78
503,la palma,0,pa,2018-04-02 23:00:30,81,8.4,-78.14,76.54,7.43
504,boksitogorsk,88,ru,2018-04-02 23:00:31,96,59.47,33.85,33.88,10.0
505,nastola,90,fi,2018-04-02 22:20:00,92,60.95,25.93,28.4,9.17
506,moindou,75,nc,2018-04-02 22:30:00,61,-21.69,165.68,82.4,17.22
507,terrace,90,ca,2018-04-02 22:00:00,64,54.52,-128.61,35.6,1.72
508,nantucket,1,us,2018-04-02 22:35:00,100,41.28,-70.1,32.0,6.2
509,nuuk,24,gl,2018-04-02 22:50:00,68,64.17,-51.74,30.2,10.29
510,fatehpur,8,pk,2018-04-02 23:00:33,76,31.18,71.21,72.67,8.66
511,christchurch,0,nz,2018-04-02 22:30:00,68,-43.53,172.64,66.2,13.87
512,nichinan,20,jp,2018-04-02 22:00:00,73,31.65,131.31,69.8,6.93
513,can tho,48,vn,2018-04-02 23:00:34,70,10.04,105.78,85.72,5.08
514,dergachi,0,ru,2018-04-02 23:00:43,86,51.24,48.77,32.8,16.04
515,kavieng,32,pg,2018-04-02 23:00:34,100,-2.57,150.8,83.65,7.76
516,marshall,90,us,2018-04-02 22:46:00,93,39.39,-87.69,44.6,6.93
517,villamontes,44,bo,2018-04-02 23:00:35,89,-21.26,-63.47,58.27,0.38
518,kaya,48,bf,2018-04-02 23:00:44,53,13.09,-1.08,75.37,2.73
519,hayesville,1,us,2018-04-02 22:35:00,62,35.05,-83.82,55.4,3.85
520,tutoia,68,br,2018-04-02 23:00:36,94,-2.76,-42.27,78.16,6.64
521,palana,48,ru,2018-04-02 23:00:44,73,59.08,159.95,39.64,4.97
522,port keats,0,au,2018-04-02 23:00:45,70,-14.25,129.55,92.38,11.01
523,hobyo,56,so,2018-04-02 23:00:37,91,5.35,48.53,79.06,6.64
524,qingdao,20,cn,2018-04-02 22:00:00,72,36.09,120.35,60.8,17.9
525,ambilobe,0,mg,2018-04-02 23:00:45,91,-13.19,49.05,69.61,4.07
526,waipawa,36,nz,2018-04-02 23:00:37,49,-39.94,176.59,72.76,14.81
527,mahibadhoo,80,mv,2018-04-02 23:00:46,100,3.78,72.97,84.91,4.18
528,choma,0,zm,2018-04-02 23:00:38,82,-16.81,26.98,55.57,5.97
529,sofiyivka,90,ua,2018-04-02 22:30:00,94,48.05,33.87,39.2,8.95
530,svetlogorsk,8,ru,2018-04-02 22:30:00,85,53.14,59.15,21.2,4.47
531,inirida,24,co,2018-04-02 23:00:38,95,3.87,-67.92,74.38,1.05
532,marfino,90,ru,2018-04-02 22:30:00,93,56.07,37.56,35.6,8.95
533,stornoway,92,gb,2018-04-02 22:20:00,80,58.21,-6.39,39.2,18.34
534,kununurra,0,au,2018-04-02 22:30:00,18,-15.77,128.74,98.6,16.11
535,ust-kulom,92,ru,2018-04-02 23:00:39,89,61.69,53.69,30.01,10.78
536,byron bay,40,au,2018-04-02 22:00:00,58,-28.65,153.62,82.4,17.22
537,rawson,0,ar,2018-04-02 23:00:40,35,-43.3,-65.11,63.22,7.43
538,guaymas,5,mx,2018-04-02 21:45:00,53,27.92,-110.9,75.2,3.18
539,balaguer,0,es,2018-04-02 23:00:40,84,41.79,0.81,37.93,2.39
540,ankazoabo,56,mg,2018-04-02 23:00:40,88,-22.29,44.51,68.44,3.62
541,conde,8,br,2018-04-02 23:00:40,100,-11.81,-37.61,74.92,4.18
542,kathmandu,20,np,2018-04-02 22:20:00,82,27.71,85.32,60.8,2.24
543,jacareacanga,20,br,2018-04-02 23:00:41,94,-6.22,-57.76,75.46,3.62
544,mangochi,88,mw,2018-04-02 23:00:41,100,-14.48,35.26,66.46,3.51
545,ankazobe,75,mg,2018-04-02 22:30:00,88,-18.32,47.12,62.6,5.82
546,chumikan,80,ru,2018-04-02 23:00:50,73,54.72,135.31,27.4,8.32
547,aparecida do taboado,48,br,2018-04-02 23:00:42,90,-20.08,-51.1,74.38,1.39
548,sungaipenuh,56,id,2018-04-02 23:00:50,85,-2.08,101.38,73.66,1.39
549,gunjur,5,gm,2018-04-02 22:00:00,82,13.18,-16.76,66.2,9.17
550,prince rupert,90,ca,2018-04-02 22:29:00,93,54.32,-130.32,35.6,9.17
551,bulgan,24,mn,2018-04-02 23:00:43,47,48.81,103.53,26.32,6.98
552,pangnirtung,20,ca,2018-04-02 23:00:43,74,66.15,-65.72,29.29,18.28
553,gamba,88,ga,2018-04-02 23:00:51,100,-2.72,10.02,76.54,1.61
554,husavik,90,is,2018-04-02 22:00:00,68,66.04,-17.34,24.8,10.29
555,wakkanai,75,jp,2018-04-02 22:00:00,80,45.41,141.67,41.0,16.11
556,yeniseysk,76,ru,2018-04-02 23:00:43,84,58.45,92.17,25.06,6.42
557,brae,68,gb,2018-04-02 22:20:00,80,60.4,-1.35,37.4,13.87
558,tepalcatepec,0,mx,2018-04-02 23:00:44,37,19.19,-102.85,76.99,3.4
559,siderno,0,it,2018-04-02 21:55:00,82,38.28,16.3,55.4,5.82
560,semnan,0,ir,2018-04-02 22:00:00,26,35.58,53.39,55.4,2.28
561,carbonia,0,it,2018-04-02 22:20:00,77,39.17,8.53,59.0,16.11
562,vardo,20,no,2018-04-02 22:20:00,86,70.37,31.11,28.4,18.34
563,chute-aux-outardes,1,ca,2018-04-02 22:00:00,78,49.12,-68.38,21.2,2.24
564,minab,0,ir,2018-04-02 22:30:00,88,27.15,57.07,69.8,3.85
565,livingston,90,us,2018-04-02 22:53:00,72,45.66,-110.56,17.6,13.87
566,mercedes,12,ar,2018-04-02 23:00:46,89,-29.18,-58.08,64.39,2.84
567,ambanja,0,mg,2018-04-02 23:00:46,95,-13.68,48.45,67.09,2.51
568,yagodnoye,88,ru,2018-04-02 23:00:46,80,62.52,149.63,24.07,3.96
569,khuchni,20,ru,2018-04-02 22:59:07,70,41.95,47.95,39.1,2.17
570,lourdes,0,fr,2018-04-02 22:30:00,93,43.09,-0.05,50.0,2.24
571,california city,1,us,2018-04-02 22:35:00,62,35.13,-117.99,77.0,14.99
572,sulina,0,ro,2018-04-02 23:00:55,95,45.16,29.65,39.37,2.62
573,mogadishu,88,so,2018-04-02 22:59:36,100,2.04,45.34,82.57,7.65
574,ust-tsilma,88,ru,2018-04-02 23:00:47,79,65.44,52.15,27.76,12.12
575,raudeberg,0,no,2018-04-02 22:20:00,100,61.99,5.14,32.0,9.17
576,goderich,92,ca,2018-04-02 22:56:58,67,43.74,-81.71,33.25,7.65
577,karachi,0,pk,2018-04-02 22:25:00,83,24.87,67.03,77.0,5.82
578,wajima,75,jp,2018-04-02 22:00:00,56,37.4,136.9,68.0,23.04
579,nanakuli,90,us,2018-04-02 22:25:00,100,21.39,-158.15,75.2,9.17
580,dauphin,1,ca,2018-04-02 22:00:00,55,51.15,-100.04,6.8,4.7
581,turayf,0,sa,2018-04-02 22:00:00,47,31.68,38.65,59.0,6.93
582,taoudenni,0,ml,2018-04-02 23:00:49,40,22.68,-3.98,71.77,9.22
583,yulara,0,au,2018-04-02 22:00:00,24,-25.24,130.99,82.4,10.29
584,kodinsk,12,ru,2018-04-02 23:00:58,68,58.6,99.18,25.69,3.51
585,gashua,0,ng,2018-04-02 23:00:50,27,12.87,11.04,69.07,6.98
586,manchar,0,in,2018-04-02 23:00:59,48,19.0,73.94,76.09,2.73
587,sao jose da coroa grande,92,br,2018-04-02 23:00:51,99,-8.9,-35.15,76.45,0.94
588,namibe,88,ao,2018-04-02 23:00:59,100,-15.19,12.15,78.16,2.95
589,tizimin,0,mx,2018-04-02 23:00:51,62,21.14,-88.15,77.26,8.43
590,caravelas,0,br,2018-04-02 23:00:51,100,-17.73,-39.27,80.86,16.04
591,rosetta,40,eg,2018-04-02 22:00:00,63,31.4,30.42,62.6,11.41
592,iralaya,0,hn,2018-04-02 23:01:00,91,15.0,-83.23,75.82,5.3
593,straumen,40,no,2018-04-02 21:50:00,92,63.87,11.3,24.8,6.93
594,brandon,90,us,2018-04-02 22:35:00,78,43.59,-96.57,33.8,13.87
595,ambon,36,id,2018-04-02 22:58:13,92,-3.7,128.18,84.64,5.19
596,barcelos,56,br,2018-04-02 23:00:53,94,-0.97,-62.93,75.64,3.74
597,ust-kut,44,ru,2018-04-02 23:00:53,53,56.78,105.75,25.6,5.64
598,urengoy,36,ru,2018-04-02 23:00:53,74,65.96,78.37,-2.66,15.48
599,ozernovskiy,80,ru,2018-04-02 23:00:53,88,51.5,156.52,30.91,14.81
600,vestmanna,88,fo,2018-04-02 22:20:00,79,62.16,-7.17,28.4,11.41
601,luena,8,ao,2018-04-02 23:00:53,91,-11.78,19.91,60.97,3.62
602,tombouctou,76,ml,2018-04-02 23:01:02,31,16.77,-3.01,74.38,4.29
603,kirakira,92,sb,2018-04-02 23:01:03,100,-10.46,161.92,81.67,10.45
604,lokosovo,12,ru,2018-04-02 23:00:55,88,61.13,74.84,2.47,10.0
605,mastic beach,1,us,2018-04-02 22:56:00,92,40.77,-72.85,37.4,5.3
606,angoche,12,mz,2018-04-02 23:00:55,100,-16.23,39.91,82.12,7.99
607,port moresby,40,pg,2018-04-02 22:00:00,63,-9.47,147.16,91.4,10.29
608,aksarka,0,ru,2018-04-02 23:00:56,67,66.56,67.8,-8.87,3.29
609,manoel urbano,32,br,2018-04-02 23:00:56,95,-8.84,-69.26,75.37,1.61
610,hervey bay,76,au,2018-04-02 23:00:56,89,-25.3,152.85,77.89,16.15
611,neiafu,44,to,2018-04-02 23:00:56,100,-18.65,-173.98,81.58,15.48
612,dingzhou,40,cn,2018-04-02 22:00:00,37,38.51,115.0,55.4,4.47
613,nyurba,0,ru,2018-04-02 23:01:06,51,63.29,118.35,13.99,4.41
614,bilma,24,ne,2018-04-02 23:01:06,33,18.69,12.92,60.34,2.84
615,skjervoy,76,no,2018-04-02 23:01:07,100,70.03,20.97,28.03,10.67
616,kapit,32,my,2018-04-02 23:00:59,84,2.02,112.94,81.76,1.72
617,saint-denis,40,re,2018-04-02 22:30:00,73,-20.87,55.47,77.0,8.05
618,pimentel,75,pe,2018-04-02 22:00:00,83,-6.84,-79.94,69.8,17.22
619,totness,92,sr,2018-04-02 23:01:08,100,5.88,-56.32,78.16,11.34
620,arauca,40,co,2018-04-02 22:00:00,93,5.11,-75.7,66.2,4.7
621,galle,36,lk,2018-04-02 23:00:10,93,6.04,80.22,82.93,6.08
622,cabras,20,it,2018-04-02 23:01:00,74,39.93,8.53,55.84,12.01
623,preeceville,8,ca,2018-04-02 23:01:09,73,51.95,-102.67,5.08,5.08
624,sopelana,20,es,2018-04-02 22:30:00,63,43.38,-2.98,62.6,8.05
625,nelson bay,75,au,2018-04-02 22:30:00,65,-32.72,152.14,77.0,17.22
626,maxixe,80,mz,2018-04-02 23:01:10,100,-23.86,35.35,75.64,4.63
627,mitsamiouli,20,km,2018-04-02 23:01:02,100,-11.38,43.28,80.77,4.74
628,balkhash,0,kz,2018-04-02 23:01:02,96,46.84,74.98,30.82,15.26
629,gasa,0,bt,2018-04-02 23:01:11,55,27.91,89.73,11.92,1.61
630,si bun ruang,8,th,2018-04-02 22:00:00,51,16.97,102.28,84.2,3.74
631,cairns,75,au,2018-04-02 22:00:00,58,-16.92,145.77,87.8,6.93
632,smidovich,48,ru,2018-04-02 23:01:03,34,48.6,133.81,36.22,16.71
633,yerbogachen,56,ru,2018-04-02 23:01:12,60,61.28,108.01,20.11,5.86
634,karatuzskoye,80,ru,2018-04-02 23:01:04,69,53.61,92.87,24.79,3.62
635,presidencia roque saenz pena,48,ar,2018-04-02 23:01:04,86,-26.79,-60.44,68.62,8.66
636,goulburn,68,au,2018-04-02 23:01:04,88,-34.75,149.72,65.11,4.85
637,beidao,68,cn,2018-04-02 23:01:04,63,34.57,105.89,57.28,8.21
638,serabu,8,sl,2018-04-02 23:01:05,98,7.79,-12.05,75.19,3.4
639,georgiyevka,44,kz,2018-04-02 23:01:05,85,43.04,74.71,41.26,2.62
640,bouca,8,cf,2018-04-02 23:01:05,92,6.51,18.28,71.95,8.1
641,vysokogornyy,68,ru,2018-04-02 23:01:14,51,50.1,139.13,20.47,12.57
642,sivaki,64,ru,2018-04-02 23:01:01,26,52.63,126.75,26.77,13.8
643,amga,92,ru,2018-04-02 23:01:06,62,60.89,131.98,17.23,11.79
644,bonthe,32,sl,2018-04-02 23:01:06,93,7.53,-12.5,78.79,5.19
645,north platte,1,us,2018-04-02 21:53:00,70,41.12,-100.77,44.6,13.87
646,nyagan,8,ru,2018-04-02 23:01:06,77,62.14,65.43,5.26,2.73
647,qaqortoq,80,gl,2018-04-02 22:50:00,37,60.72,-46.03,37.4,6.93
648,ereymentau,88,kz,2018-04-02 23:01:07,96,51.62,73.1,23.71,8.1
649,parabel,76,ru,2018-04-02 23:01:15,89,58.71,81.5,19.84,8.77
650,sisimiut,0,gl,2018-04-02 23:01:07,66,66.94,-53.67,10.21,4.63
651,sao felix do xingu,68,br,2018-04-02 23:01:07,97,-6.64,-51.99,74.74,0.6
652,xining,0,cn,2018-04-02 23:01:07,33,36.62,101.77,49.99,2.51
653,zyryanka,0,ru,2018-04-02 23:01:08,69,65.73,150.89,34.24,6.53
654,willmar,90,us,2018-04-02 22:35:00,100,45.12,-95.04,30.2,12.75
655,westport,92,ie,2018-04-02 23:01:08,100,53.8,-9.52,40.18,8.43
656,calabozo,0,ve,2018-04-02 23:01:08,47,8.92,-67.43,84.37,14.47
657,peachland,90,ca,2018-04-02 22:00:00,35,49.77,-119.75,44.6,3.36
658,knin,0,hr,2018-04-02 22:30:00,81,44.04,16.2,46.4,4.7
659,charyshskoye,88,ru,2018-04-02 23:01:17,87,51.4,83.56,22.45,8.21
660,pandan,48,ph,2018-04-02 23:01:09,100,11.72,122.09,79.69,12.01
661,sistranda,20,no,2018-04-02 21:50:00,86,63.73,8.83,28.4,5.82
662,akdepe,0,tm,2018-04-02 22:30:00,39,42.05,59.39,46.4,9.17
663,kosh-agach,32,ru,2018-04-02 23:01:10,48,49.99,88.66,16.15,5.75
664,buluang,75,ph,2018-04-02 22:00:00,66,10.47,123.98,86.0,8.05
665,sur,0,om,2018-04-02 23:01:10,82,22.57,59.53,80.32,3.18
666,kapuskasing,75,ca,2018-04-02 22:00:00,55,49.42,-82.43,8.6,5.82
667,eureka,1,us,2018-04-02 21:53:00,58,40.8,-124.16,53.6,11.41
668,vaitape,88,pf,2018-04-02 23:01:20,100,-16.52,-151.75,82.21,10.67
669,oranjemund,92,na,2018-04-02 23:01:20,100,-28.55,16.43,62.05,12.46
670,ust-kuyga,80,ru,2018-04-02 23:01:12,86,70.0,135.55,13.54,4.18
671,estelle,1,us,2018-04-02 22:15:00,77,32.87,-97.01,62.6,5.82
672,college,1,us,2018-04-02 21:58:00,18,64.86,-147.8,28.4,9.17
673,usinsk,64,ru,2018-04-02 22:57:41,75,66.0,57.56,12.1,10.0
674,ruteng,8,id,2018-04-02 23:01:13,78,-8.61,120.46,83.47,0.94
675,padang,20,id,2018-04-02 23:01:13,100,-0.92,100.36,80.41,1.72
676,jatai,56,br,2018-04-02 23:01:13,92,-17.88,-51.71,67.36,3.4
677,bayan,0,kw,2018-04-02 23:00:00,40,29.3,48.05,68.0,3.74
678,verkhnevilyuysk,0,ru,2018-04-02 23:01:14,51,63.45,120.31,11.38,6.31
679,labuhan,20,id,2018-04-02 23:01:14,78,-2.54,115.51,84.64,3.06
680,nizhniy odes,88,ru,2018-04-02 23:01:22,80,63.64,54.86,26.41,10.89
681,tianpeng,0,cn,2018-04-02 23:01:23,89,28.88,112.34,78.25,5.75
682,werneck,75,de,2018-04-02 22:56:00,50,49.98,10.1,53.6,8.05
683,hanzhong,0,cn,2018-04-02 23:01:15,43,33.08,107.03,75.46,2.51
684,nowshera,40,pk,2018-04-02 22:00:00,56,34.02,71.98,71.6,6.93
685,haapiti,75,pf,2018-04-02 22:30:00,69,-17.57,-149.87,82.4,10.29
686,valea nucarilor,0,ro,2018-04-02 22:30:00,86,45.04,28.94,37.4,5.82
687,lundazi,0,zm,2018-04-02 23:01:24,94,-12.29,33.17,62.32,4.41
688,vagur,44,fo,2018-04-02 23:01:24,100,61.47,-6.81,36.49,15.7
689,yook,56,ph,2018-04-02 23:01:16,100,13.23,121.96,78.16,2.62
690,mairana,88,bo,2018-04-02 23:01:25,98,-18.12,-63.96,59.71,2.06
691,hukuntsi,8,bw,2018-04-02 23:01:25,68,-23.98,21.76,61.69,11.23
692,sundargarh,0,in,2018-04-02 23:01:26,51,22.12,84.04,79.33,4.41
693,batagay,76,ru,2018-04-02 23:01:17,68,67.65,134.64,31.81,4.97
694,walvis bay,92,na,2018-04-02 22:00:00,88,-22.95,14.51,66.2,6.93
695,rennes,75,fr,2018-04-02 22:30:00,93,48.11,-1.68,50.0,11.41
696,licata,20,it,2018-04-02 23:01:27,98,37.11,13.95,45.4,5.64
697,kon tum,0,vn,2018-04-02 23:01:18,41,14.36,108.0,81.76,2.51
698,taicheng,12,cn,2018-04-02 23:01:19,57,22.25,112.8,83.2,5.97
699,sao joao da barra,76,br,2018-04-02 23:01:19,94,-21.64,-41.05,81.67,25.66
700,lillooet,1,ca,2018-04-02 22:00:00,45,50.69,-121.94,44.6,18.34
701,goias,68,br,2018-04-02 23:01:19,96,-15.93,-50.14,69.79,4.63
702,bud,0,no,2018-04-02 22:20:00,92,62.91,6.91,28.4,8.05
703,dhidhdhoo,32,mv,2018-04-02 23:01:20,100,6.88,73.1,82.84,2.06
704,tateyama,40,jp,2018-04-02 22:00:00,36,36.66,137.31,77.0,14.99
705,carnarvon,68,za,2018-04-02 23:01:20,95,-30.97,22.13,54.31,4.29
706,ljungby,64,se,2018-04-02 22:20:00,79,56.83,13.94,24.8,2.51
707,fort nelson,90,ca,2018-04-02 22:00:00,53,58.81,-122.69,24.8,11.41
708,tsuyama,20,jp,2018-04-02 22:00:00,46,35.14,134.03,71.6,5.82
709,richards bay,8,za,2018-04-02 23:01:21,85,-28.77,32.06,73.21,10.33
710,eydhafushi,76,mv,2018-04-02 23:01:30,97,5.1,73.07,85.54,3.74
711,nakhon thai,24,th,2018-04-02 22:00:00,58,17.1,100.84,82.4,2.24
712,lazaro cardenas,5,mx,2018-04-02 21:44:00,10,28.39,-105.62,78.8,13.87
713,bell ville,56,ar,2018-04-02 23:01:22,90,-32.63,-62.69,58.09,3.4
714,xinqing,68,cn,2018-04-02 23:01:31,28,48.28,129.53,31.81,10.22
715,jinchang,0,cn,2018-04-02 23:01:23,59,38.52,102.19,44.41,3.51
716,aksu,92,cn,2018-04-02 23:01:23,86,41.12,80.26,44.95,3.51
717,dromolaxia,0,cy,2018-04-02 22:30:00,58,34.88,33.59,55.4,4.7
718,puri,0,in,2018-04-02 22:00:00,83,19.8,85.85,77.0,2.24
719,marsa matruh,0,eg,2018-04-02 22:00:00,72,31.35,27.25,60.8,11.41
720,canto do buriti,0,br,2018-04-02 23:01:24,90,-8.11,-42.94,72.85,6.2
721,bardiyah,0,ly,2018-04-02 23:01:33,99,31.76,25.09,58.72,8.99
722,saltpond,12,gh,2018-04-02 23:01:33,96,5.2,-1.06,75.64,3.96
723,maldonado,40,uy,2018-04-02 22:24:00,88,-34.91,-54.96,66.2,11.41
724,townsville,40,au,2018-04-02 22:30:00,54,-19.26,146.82,84.2,20.8
725,nuevo progreso,0,mx,2018-04-02 23:01:34,70,17.14,-95.05,77.71,7.2
726,dana point,75,us,2018-04-02 22:42:00,77,33.47,-117.7,64.4,6.93
727,dunda,64,tz,2018-04-02 23:01:34,93,-8.12,34.25,61.69,2.95
728,madingou,88,cg,2018-04-02 23:01:26,96,-4.17,13.56,74.02,2.39
729,riyadh,88,sa,2018-04-02 22:00:00,23,24.63,46.72,73.4,4.7
730,isiro,88,cd,2018-04-02 22:56:30,95,2.77,27.62,67.9,2.95
731,bayanday,0,ru,2018-04-02 23:01:27,38,53.07,105.52,26.32,8.43
732,yinchuan,48,cn,2018-04-02 23:01:27,39,38.48,106.21,52.69,4.18
733,aleksandrovsk-sakhalinskiy,44,ru,2018-04-02 23:01:36,76,50.9,142.16,31.09,18.28
734,coahuayana,12,mx,2018-04-02 23:01:28,51,18.62,-100.35,69.61,3.29
735,daru,20,pg,2018-04-02 23:01:36,100,-9.07,143.21,83.56,9.22
736,voskevan,40,am,2018-04-02 22:30:00,70,41.12,45.07,46.4,29.97
737,kuruman,76,za,2018-04-02 23:01:28,97,-27.46,23.43,56.56,3.29
738,silver city,1,us,2018-04-02 22:55:00,12,32.77,-108.28,60.8,8.05
739,tura,76,ru,2018-04-02 23:01:37,60,64.27,100.22,15.97,5.86
740,kenai,1,us,2018-04-02 21:56:00,38,60.55,-151.26,41.0,16.11
741,campbell river,90,ca,2018-04-02 22:00:00,60,50.02,-125.24,46.4,5.82
742,camabatela,56,ao,2018-04-02 23:01:29,96,-8.19,15.37,62.68,3.85
743,owensboro,90,us,2018-04-02 22:48:00,87,37.77,-87.11,50.0,11.41
744,mildura,0,au,2018-04-02 23:01:38,68,-34.18,142.16,70.6,6.31
745,araouane,0,ml,2018-04-02 23:01:30,24,18.9,-3.53,67.81,2.84
746,plettenberg bay,80,za,2018-04-02 23:01:39,94,-34.05,23.37,65.92,4.18
747,bathsheba,40,bb,2018-04-02 22:00:00,83,13.22,-59.52,77.0,16.11
748,mecca,0,sa,2018-04-02 22:00:00,65,21.43,39.83,82.4,2.62
749,malanje,56,ao,2018-04-02 23:01:40,100,-9.54,16.35,65.29,2.73
750,mana,76,gf,2018-04-02 23:01:31,94,5.67,-53.78,75.82,2.73
751,manokwari,8,id,2018-04-02 23:01:31,95,-0.87,134.08,84.46,10.11
752,nalvo,100,ph,2018-04-02 23:01:40,89,16.81,120.51,70.87,1.39
753,porto walter,32,br,2018-04-02 23:01:32,96,-8.27,-72.74,75.1,1.95
754,turmalina,56,br,2018-04-02 23:01:32,83,-17.29,-42.73,69.61,2.62
755,puqi,8,cn,2018-04-02 23:01:41,92,29.72,113.88,73.93,4.18
756,primo tapia,90,mx,2018-04-02 22:24:00,67,32.22,-116.92,60.8,8.05
757,san policarpo,68,ph,2018-04-02 23:01:42,92,12.18,125.51,81.85,11.01
758,whitehorse,75,ca,2018-04-02 22:00:00,32,60.72,-135.06,23.0,11.41
759,ponta delgada,75,pt,2018-04-02 22:30:00,67,37.73,-25.67,59.0,18.34
760,quthing,88,ls,2018-04-02 23:01:34,100,-30.4,27.7,52.87,1.95
761,hit,24,iq,2018-04-02 23:01:34,35,33.64,42.83,57.73,7.09
762,luanda,20,ao,2018-04-02 22:00:00,78,-8.83,13.24,80.6,3.36
763,haines junction,64,ca,2018-04-02 23:01:35,70,60.75,-137.51,10.66,5.64
764,maltahohe,92,na,2018-04-02 23:01:43,83,-24.83,16.98,61.78,6.2
765,bejar,92,es,2018-04-02 23:01:44,100,40.39,-5.76,47.02,7.2
766,wenzhou,92,cn,2018-04-02 23:01:35,65,28.02,120.66,72.58,3.4
767,marondera,20,zw,2018-04-02 23:01:44,97,-18.19,31.55,53.86,2.95
768,tabou,32,ci,2018-04-02 23:01:44,98,4.42,-7.36,82.21,12.24
769,hualmay,44,pe,2018-04-02 23:01:36,86,-11.1,-77.61,66.01,4.41
770,broken hill,0,au,2018-04-02 23:01:36,38,-31.97,141.45,76.27,15.37
771,baruun-urt,0,mn,2018-04-02 23:01:36,41,46.68,113.28,25.51,5.75
772,hibbing,90,us,2018-04-02 22:35:00,73,47.43,-92.94,26.6,4.18
773,sete,20,fr,2018-04-02 22:30:00,76,43.4,3.7,55.4,10.29
774,san rafael del sur,20,ni,2018-04-02 22:00:00,54,11.85,-86.44,82.4,9.17
775,palmas bellas,0,pa,2018-04-02 22:00:00,73,9.23,-80.09,77.0,6.93
776,mahbubabad,0,in,2018-04-02 23:01:46,55,17.62,80.02,81.76,5.3
777,fairbanks,1,us,2018-04-02 21:58:00,18,64.84,-147.72,28.4,9.17
778,yarmouth,5,ca,2018-04-02 22:00:00,74,43.84,-66.12,30.2,9.17
779,quesnel,90,ca,2018-04-02 22:00:00,31,52.98,-122.49,35.6,2.06
780,merritt island,1,us,2018-04-02 21:56:00,88,28.54,-80.67,75.2,4.7
781,tahoua,24,ne,2018-04-02 23:01:39,51,14.89,5.26,68.17,4.41
782,bria,20,cf,2018-04-02 23:01:39,86,6.54,21.99,70.24,3.29
783,quepos,20,cr,2018-04-02 22:00:00,64,9.43,-84.16,71.6,11.41
784,arkhipo-osipovka,12,ru,2018-04-02 23:01:39,84,44.37,38.53,46.57,9.89
785,magnolia,40,us,2018-04-02 22:35:00,77,33.27,-93.24,75.2,4.7
786,hirara,40,jp,2018-04-02 22:00:00,64,24.8,125.28,77.0,11.41
787,jamame,80,so,2018-04-02 23:01:40,96,0.07,42.75,75.64,2.62
788,geraldton,5,ca,2018-04-02 22:00:00,49,49.72,-86.95,-0.41,3.36
789,havoysund,40,no,2018-04-02 21:50:00,86,71.0,24.66,26.6,11.41
790,luganville,100,vu,2018-04-02 23:01:41,100,-15.51,167.18,79.24,6.87
791,baker city,1,us,2018-04-02 22:56:00,55,44.77,-117.83,33.8,9.17
792,tommot,48,ru,2018-04-02 23:01:50,49,58.97,126.27,8.05,9.89
793,toledo,36,es,2018-04-02 22:58:58,96,39.86,-4.02,47.29,5.97
794,capitao poco,100,br,2018-04-02 23:01:42,97,-1.75,-47.06,75.64,3.18
795,batalha,56,br,2018-04-02 23:01:51,80,-9.67,-37.13,76.27,7.43
796,salinopolis,64,br,2018-04-02 23:01:43,100,-0.61,-47.36,79.69,8.21
797,sale,12,au,2018-04-02 23:01:43,72,-38.11,147.06,67.81,4.18
798,monte alegre de minas,56,br,2018-04-02 23:01:43,97,-18.87,-48.88,66.82,2.73
799,vanavara,0,ru,2018-04-02 23:01:43,64,60.35,102.28,20.11,3.74
800,mandalgovi,88,mn,2018-04-02 23:01:44,81,45.76,106.27,27.22,11.45
801,peleduy,44,ru,2018-04-02 23:01:44,54,59.63,112.75,20.56,5.41
802,senador jose porfirio,0,br,2018-04-02 23:01:44,99,-2.59,-51.95,76.27,4.85
803,pulaski,90,us,2018-04-02 22:35:00,100,37.05,-80.78,57.2,10.29
804,mozarlandia,56,br,2018-04-02 23:01:45,84,-14.74,-50.57,74.65,3.85
805,sinait,20,ph,2018-04-02 22:00:00,51,17.87,120.46,86.0,4.7
806,mirandopolis,88,br,2018-04-02 23:01:45,93,-21.13,-51.1,71.77,2.95
807,cilibia,0,ro,2018-04-02 23:01:46,72,45.06,27.07,37.39,2.73
808,bolobo,92,cd,2018-04-02 23:01:55,100,-2.17,16.23,71.95,2.51
809,black river,20,jm,2018-04-02 22:00:00,69,18.03,-77.85,78.8,1.12
810,rancho palos verdes,5,us,2018-04-02 22:55:00,59,33.75,-118.37,64.4,6.93
811,puerto narino,40,co,2018-04-02 22:00:00,94,-3.77,-70.38,78.8,2.24
812,gornyy,0,ru,2018-04-02 23:01:55,90,51.76,48.54,32.89,16.26
813,mindelo,32,cv,2018-04-02 23:01:47,100,16.89,-24.98,67.09,12.12
814,buritizeiro,56,br,2018-04-02 23:01:47,78,-17.37,-44.96,73.21,3.74
815,kirkwall,88,gb,2018-04-02 22:50:00,74,58.98,-2.96,37.4,13.87
816,mangrol,0,in,2018-04-02 23:01:48,26,25.33,76.51,85.36,2.17
817,swan hill,0,au,2018-04-02 23:01:48,55,-35.34,143.56,72.04,8.21
818,santa cruz,0,cr,2018-04-02 22:00:00,51,10.26,-85.58,82.4,10.29
819,dubbo,0,au,2018-04-02 22:30:00,37,-32.25,148.6,86.0,13.87
820,mosquera,40,co,2018-04-02 22:00:00,87,4.71,-74.23,55.4,2.24
821,poyarkovo,48,ru,2018-04-02 23:01:49,29,49.62,128.65,34.51,18.39
822,luangwa,92,zm,2018-04-02 23:01:49,98,-12.88,28.25,63.04,5.41
823,urozhaynoye,56,ru,2018-04-02 23:01:49,74,47.7,142.03,37.39,18.16
824,ambulu,0,id,2018-04-02 23:01:50,100,-8.35,113.61,83.92,3.96
825,ixtapa,5,mx,2018-04-02 21:47:00,78,20.71,-105.21,73.4,6.93
826,hostotipaquillo,0,mx,2018-04-02 23:01:50,23,21.06,-104.05,69.16,2.73
827,kilindoni,92,tz,2018-04-02 23:01:59,100,-7.91,39.67,75.19,7.2
828,agirish,56,ru,2018-04-02 23:01:59,70,61.92,63.02,15.43,5.64
829,russell,8,nz,2018-04-02 23:01:59,48,-35.26,174.12,75.37,2.51
830,umba,88,ru,2018-04-02 23:01:51,88,66.69,34.34,30.82,17.05
831,velingrad,0,bg,2018-04-02 22:30:00,93,42.03,23.99,37.4,5.82
832,nadym,12,ru,2018-04-02 23:02:00,83,65.53,72.51,1.12,14.25
833,sombrio,88,br,2018-04-02 23:02:01,100,-29.11,-49.63,68.71,9.44
834,brownsville,40,us,2018-04-02 22:15:00,83,25.91,-97.49,77.0,21.92
835,vila do maio,40,cv,2018-04-02 22:00:00,72,15.13,-23.22,66.2,24.16
836,miraflores,92,co,2018-04-02 23:01:54,100,5.2,-73.14,53.59,2.17
837,farrukhnagar,20,in,2018-04-02 22:30:00,47,28.45,76.82,78.8,5.82
838,atasu,44,kz,2018-04-02 23:02:03,91,48.68,71.64,21.82,9.33
839,pauini,36,br,2018-04-02 23:02:03,90,-7.71,-67.0,75.82,2.95
840,bosaso,92,so,2018-04-02 22:57:39,95,11.28,49.18,79.69,2.62
841,matara,36,lk,2018-04-02 23:01:55,93,5.95,80.54,82.93,6.08
842,lingyuan,92,cn,2018-04-02 23:02:04,79,41.24,119.4,32.08,15.37
843,lastoursville,92,ga,2018-04-02 23:01:56,93,-0.81,12.73,74.56,2.39
844,ishigaki,20,jp,2018-04-02 22:00:00,57,24.34,124.16,77.0,10.29
845,bay roberts,75,ca,2018-04-02 22:00:00,86,47.58,-53.28,28.4,8.05
846,rolla,90,us,2018-04-02 22:49:00,100,37.95,-91.77,42.8,14.99
847,tual,88,id,2018-04-02 23:01:57,100,-5.67,132.75,78.07,11.01
848,pacific grove,1,us,2018-04-02 22:35:00,71,36.62,-121.92,60.8,8.05
849,komsomolskiy,0,ru,2018-04-02 23:01:57,40,67.55,63.78,-12.74,3.06
850,zhaoyang,92,cn,2018-04-02 23:02:06,84,42.68,126.03,38.47,9.89
851,ampanihy,12,mg,2018-04-02 23:01:58,93,-24.69,44.75,68.62,7.09
852,naranjal,0,py,2018-04-02 23:00:00,94,-25.97,-55.19,68.0,2.24
853,pimenta bueno,0,br,2018-04-02 23:01:58,94,-11.68,-61.19,72.58,2.06
854,mendi,48,et,2018-04-02 23:02:07,96,9.8,35.1,57.1,3.74
855,tyubuk,20,ru,2018-04-02 23:01:59,84,56.05,60.94,18.76,8.77
856,tocopilla,0,cl,2018-04-02 23:02:08,100,-22.09,-70.2,59.98,1.05
857,ito,75,jp,2018-04-02 22:23:00,72,34.93,139.09,68.0,8.05
858,gorele,75,tr,2018-04-02 22:20:00,66,41.03,39.0,51.8,2.24
859,lambarene,92,ga,2018-04-02 23:02:00,99,-0.7,10.22,76.09,2.51
860,atbasar,36,kz,2018-04-02 23:02:09,73,51.81,68.36,20.47,3.06
861,isaka,64,tz,2018-04-02 23:02:01,97,-3.91,32.95,59.71,3.06
862,suamico,90,us,2018-04-02 22:39:00,92,44.63,-88.04,33.8,3.36
863,san juan,0,ar,2018-04-02 23:02:01,86,-31.54,-68.53,54.58,3.18
864,novikovo,24,ru,2018-04-02 23:02:02,96,51.15,37.89,32.89,9.44
865,tooele,90,us,2018-04-02 22:15:00,59,40.53,-112.3,42.8,21.92
866,kisangani,0,cd,2018-04-02 23:02:02,100,0.52,25.21,71.77,2.51
867,chara,44,ru,2018-04-02 23:02:02,46,56.9,118.26,4.18,4.18
868,severodvinsk,90,ru,2018-04-02 22:30:00,100,64.56,39.82,35.6,13.42
869,lexington,90,us,2018-04-02 22:36:00,81,38.05,-84.5,48.2,9.17
870,araguaina,24,br,2018-04-02 23:02:03,94,-7.19,-48.21,73.12,4.63
871,masingbi,36,sl,2018-04-02 23:02:03,95,8.64,-11.47,72.94,3.85
872,palasa,0,in,2018-04-02 23:01:19,86,18.77,84.42,84.01,7.65
873,channagiri,0,in,2018-04-02 23:02:12,81,14.03,75.92,75.46,4.41
874,casa grande,1,us,2018-04-02 21:56:00,8,32.88,-111.76,84.2,6.93
875,santa teresa,36,ph,2018-04-02 23:02:04,84,13.31,123.75,81.58,4.52
876,lieksa,92,fi,2018-04-02 23:02:04,94,63.32,30.02,30.91,4.18
877,kardla,80,ee,2018-04-02 22:50:00,92,58.44,26.57,30.2,18.34
878,stykkisholmur,76,is,2018-04-02 23:00:33,100,65.08,-22.73,28.21,15.93
879,muborak,0,uz,2018-04-02 23:02:05,65,39.25,65.15,53.59,10.22
880,manbij,0,sy,2018-04-02 22:20:00,81,36.53,37.96,42.8,1.12
881,imeni poliny osipenko,76,ru,2018-04-02 23:02:05,53,52.42,136.49,32.89,11.34
882,ohara,20,jp,2018-04-02 22:00:00,46,35.12,135.83,73.4,5.82
883,hamilton,75,bm,2018-04-02 22:35:00,88,32.3,-64.78,66.2,1.12
884,nagapattinam,0,in,2018-04-02 23:02:14,70,10.76,79.84,84.37,2.51
885,kattivakkam,40,in,2018-04-02 22:30:00,79,13.22,80.32,86.0,5.82
886,lekoni,88,ga,2018-04-02 23:02:06,98,-1.58,14.26,69.52,6.76
887,pachino,12,it,2018-04-02 23:02:06,100,36.72,15.09,56.56,6.76
888,talas,75,tr,2018-04-02 22:20:00,91,38.69,35.55,32.0,1.12
889,saint-leu,0,re,2018-04-02 22:30:00,69,-21.15,55.28,77.0,5.82
890,san luis,88,pe,2018-04-02 23:02:07,100,-9.09,-77.33,44.86,0.38
891,viedma,0,ar,2018-04-02 23:02:07,44,-40.81,-62.99,68.17,12.8
892,girona,75,es,2018-04-02 22:30:00,100,41.98,2.82,51.8,4.7
893,port hawkesbury,1,ca,2018-04-02 22:00:00,68,45.62,-61.36,24.8,3.36
894,washim,36,in,2018-04-02 23:02:08,28,20.1,77.14,85.36,4.52
895,umm kaddadah,0,sd,2018-04-02 23:02:08,21,13.6,26.69,58.27,9.55
896,mananjary,44,mg,2018-04-02 23:02:08,88,-19.16,46.8,56.92,6.42
897,vanimo,80,pg,2018-04-02 23:02:08,100,-2.67,141.3,83.11,8.32
898,ola,40,ru,2018-04-02 22:30:00,68,59.58,151.3,30.2,13.42
899,kaka,0,tm,2018-04-02 23:02:09,86,37.35,59.62,37.93,2.51
900,tynda,48,ru,2018-04-02 23:02:17,37,55.15,124.74,14.44,11.23
901,matamoros,40,mx,2018-04-02 21:43:00,11,25.53,-103.23,86.0,6.93
902,kendari,44,id,2018-04-02 23:02:09,91,-3.99,122.52,84.82,3.85
903,banyo,36,cm,2018-04-02 23:02:09,82,6.75,11.81,62.77,5.86
904,sines,92,pt,2018-04-02 23:02:09,97,37.96,-8.87,58.27,17.83
905,kizhinga,0,ru,2018-04-02 23:02:10,35,51.85,109.91,23.62,4.63
906,kiunga,88,pg,2018-04-02 23:02:10,87,-6.12,141.3,80.05,2.84
907,lodja,92,cd,2018-04-02 23:02:10,100,-3.52,23.6,69.52,2.51
908,eyl,100,so,2018-04-02 23:02:10,100,7.98,49.82,79.51,5.41
909,orchard homes,90,us,2018-04-02 22:53:00,86,46.86,-114.05,30.2,10.29
910,mnogovershinnyy,88,ru,2018-04-02 23:02:19,74,53.94,139.92,28.21,10.45
911,darnah,0,ly,2018-04-02 23:02:11,100,32.77,22.64,60.34,13.47
912,kontagora,0,ng,2018-04-02 23:02:11,66,10.4,5.47,77.35,8.55
913,la asuncion,8,ve,2018-04-02 23:02:20,99,11.03,-63.86,77.89,18.16
914,pidhorodna,0,ua,2018-04-02 23:02:12,78,48.11,30.89,35.59,10.11
915,remanso,44,br,2018-04-02 23:02:20,100,-9.62,-42.08,78.34,4.07
916,starosubkhangulovo,20,ru,2018-04-02 23:02:12,77,53.1,57.43,20.92,4.52
917,nara,48,ml,2018-04-02 23:02:21,57,15.17,-7.29,76.63,3.06
918,buraydah,40,sa,2018-04-02 22:00:00,82,26.33,43.97,64.4,4.7
919,cascais,75,pt,2018-04-02 22:30:00,93,38.7,-9.42,57.2,12.75
920,monrovia,40,lr,2018-04-02 22:00:00,94,6.33,-10.8,77.0,4.52
921,seymchan,88,ru,2018-04-02 23:02:13,89,62.93,152.39,32.26,7.43
922,valkeakoski,0,fi,2018-04-02 22:50:00,85,61.26,24.03,21.2,5.82
923,abonnema,88,ng,2018-04-02 23:02:23,98,4.71,6.79,74.56,3.4
924,mabaruma,92,gy,2018-04-02 23:02:23,89,8.2,-59.78,78.61,6.87
925,werda,32,bw,2018-04-02 23:02:15,95,-25.27,23.28,60.52,7.76
926,enkoping,24,se,2018-04-02 22:20:00,79,59.64,17.08,19.4,3.36
927,koumac,92,nc,2018-04-02 23:02:15,95,-20.56,164.28,76.81,11.01
928,liverpool,0,ca,2018-04-02 23:02:24,96,44.04,-64.71,32.89,12.8
929,kimbe,80,pg,2018-04-02 23:02:16,100,-5.56,150.15,78.43,5.86
930,san joaquin,80,bo,2018-04-02 23:02:16,97,-16.38,-58.39,73.21,1.16
931,nakusp,76,ca,2018-04-02 23:02:16,73,50.24,-117.8,24.7,1.72
932,kalianget,12,id,2018-04-02 23:02:16,79,-7.35,109.91,80.59,0.72
933,zaozerne,0,ua,2018-04-02 23:02:16,83,51.37,23.94,28.3,5.75
934,alamogordo,1,us,2018-04-02 22:55:00,11,32.9,-105.96,71.6,6.93
935,gotsu,20,jp,2018-04-02 22:00:00,60,35.01,132.22,71.6,10.29
936,pinar del rio,20,cu,2018-04-02 23:02:17,81,22.42,-83.7,71.41,3.51
937,san carlos de bariloche,0,ar,2018-04-02 22:00:00,55,-41.13,-71.31,60.8,20.8
938,nyakahanga,88,tz,2018-04-02 23:02:17,96,-1.6,31.14,61.33,2.51
939,alyangula,0,au,2018-04-02 23:02:18,79,-13.85,136.42,92.02,12.35
940,katobu,64,id,2018-04-02 23:02:18,80,-4.94,122.53,87.07,5.64
941,south lake tahoe,1,us,2018-04-02 22:35:00,33,38.93,-119.98,57.2,3.62
942,champasak,20,la,2018-04-02 22:00:00,65,14.89,105.88,80.6,9.17
943,hovd,32,mn,2018-04-02 23:02:18,70,48.01,91.64,23.53,2.73
944,olyka,0,ua,2018-04-02 23:02:18,89,50.73,25.81,29.92,5.3
945,evanston,90,us,2018-04-02 22:45:00,56,42.04,-87.69,42.8,9.17
946,amilly,80,fr,2018-04-02 23:02:28,90,47.98,2.77,50.26,8.43
947,la romana,75,do,2018-04-02 22:00:00,94,18.43,-68.97,75.2,3.4
948,orangeburg,1,us,2018-04-02 22:56:00,72,33.49,-80.86,71.6,4.7
949,gimbi,76,et,2018-04-02 23:02:20,95,8.81,37.79,50.62,1.5
950,isla vista,1,us,2018-04-02 22:35:00,87,34.41,-119.86,59.0,12.75
951,charters towers,92,au,2018-04-02 23:02:20,92,-20.07,146.27,73.39,13.8
952,pervomayskoye,56,ru,2018-04-02 23:02:21,94,57.07,86.23,24.52,9.89
953,kajaani,90,fi,2018-04-02 22:50:00,92,64.22,27.73,24.8,5.82
954,pitiquito,32,mx,2018-04-02 23:02:30,13,30.68,-112.05,68.71,6.42
955,amambai,12,br,2018-04-02 23:02:21,91,-23.11,-55.23,67.0,2.73
956,boguchany,48,ru,2018-04-02 23:02:22,69,58.38,97.46,25.15,4.07
957,bullhead city,1,us,2018-04-02 22:35:00,14,35.15,-114.57,87.8,11.41
958,kota kinabalu,75,my,2018-04-02 22:30:00,66,5.98,116.07,87.8,5.82
959,halmstad,92,se,2018-04-02 22:20:00,97,56.67,12.86,32.0,5.82
960,kirovskaya,92,ru,2018-04-02 23:02:23,100,46.97,40.04,47.74,13.91
961,miandoab,75,ir,2018-04-02 22:00:00,65,36.97,46.1,46.4,9.17
962,melita,8,ca,2018-04-02 23:02:32,79,49.27,-100.98,5.62,8.66
963,leshan,0,cn,2018-04-02 23:02:24,42,29.56,103.76,77.62,3.74
964,serik,0,tr,2018-04-02 22:20:00,44,36.92,31.1,59.0,12.75
965,haflong,0,in,2018-04-02 23:02:32,69,25.18,93.03,78.34,1.39
966,arroio grande,64,br,2018-04-02 23:02:24,100,-32.24,-53.09,69.16,6.31
967,abomey,56,bj,2018-04-02 23:02:33,93,7.18,1.99,76.63,7.43
968,kerema,64,pg,2018-04-02 23:02:34,79,-7.96,145.78,80.86,1.72
969,la paz,5,mx,2018-04-02 21:40:00,27,24.15,-110.32,77.0,11.41
970,pastavy,48,by,2018-04-02 23:02:35,83,55.11,26.84,31.45,16.15
971,sampit,0,id,2018-04-02 23:02:26,95,-2.54,112.95,85.72,4.63
972,ludvika,0,se,2018-04-02 22:20:00,62,60.15,15.18,21.2,10.29
973,wyndham,12,nz,2018-04-02 23:02:27,62,-46.33,168.85,61.15,25.55
974,merauke,24,id,2018-04-02 23:02:27,96,-8.49,140.4,84.46,9.44
975,mujiayingzi,92,cn,2018-04-02 23:02:27,90,42.12,118.78,27.04,9.44
976,sertanopolis,75,br,2018-04-02 22:00:00,78,-23.06,-51.04,75.2,3.18
977,keetmanshoop,88,na,2018-04-02 22:00:00,73,-26.57,18.15,69.8,2.95
978,new haven,1,us,2018-04-02 22:55:00,86,41.31,-72.93,37.4,3.36
979,kindu,92,cd,2018-04-02 23:02:28,100,-2.95,25.92,68.98,2.84
980,lucea,20,jm,2018-04-02 22:00:00,69,18.44,-78.17,78.8,1.12
981,sontra,75,de,2018-04-02 22:20:00,81,51.07,9.94,46.4,14.99
982,buala,88,sb,2018-04-02 23:02:29,95,-8.15,159.59,82.84,3.74
983,dire dawa,0,et,2018-04-02 23:02:29,94,9.59,41.86,56.92,4.74
984,nouakchott,0,mr,2018-04-02 23:02:29,97,18.08,-15.98,65.47,16.71
985,mouila,92,ga,2018-04-02 23:02:29,100,-1.86,11.06,71.77,2.73
986,harrison,90,us,2018-04-02 22:15:00,81,39.26,-84.82,46.4,5.82
987,argentan,0,fr,2018-04-02 22:30:00,87,48.74,-0.02,50.0,10.29
988,port townsend,1,us,2018-04-02 22:35:00,52,48.12,-122.76,46.4,4.7
989,trincomalee,0,lk,2018-04-02 23:02:39,88,8.58,81.23,81.67,4.52
990,parintins,12,br,2018-04-02 23:02:39,100,-2.63,-56.73,72.4,2.39
991,cunha,75,br,2018-04-02 22:00:00,83,-23.08,-44.96,71.6,2.24
992,abdanan,0,ir,2018-04-02 23:02:31,68,32.99,47.42,46.3,2.95
993,sioux lookout,5,ca,2018-04-02 22:00:00,64,50.1,-91.92,6.8,3.36
994,andenes,68,no,2018-04-02 22:20:00,79,69.31,16.12,21.2,6.93
995,bicester,75,gb,2018-04-02 22:50:00,100,51.9,-1.15,50.0,4.7
996,preobrazheniye,32,ru,2018-04-02 23:02:32,35,42.9,133.91,45.94,6.42
997,fuerte olimpo,20,py,2018-04-02 23:02:40,94,-21.04,-57.87,71.59,2.62
998,astoria,90,us,2018-04-02 22:55:00,65,46.19,-123.83,46.4,3.36
999,danilov,92,ru,2018-04-02 23:02:41,97,58.19,40.17,35.68,17.49
1000,boyolangu,12,id,2018-04-02 23:02:42,88,-8.09,111.9,82.57,4.85
1001,penzance,90,gb,2018-04-02 21:50:00,100,50.12,-5.53,50.0,16.11
1002,ha tinh,68,vn,2018-04-02 23:02:42,98,18.33,105.9,74.11,13.69
1003,biskupiec,36,pl,2018-04-02 23:02:34,88,53.87,20.96,24.07,3.4
1004,segou,80,ml,2018-04-02 23:02:34,45,13.43,-6.22,77.98,4.29
1005,scarborough,20,tt,2018-04-02 22:00:00,78,11.18,-60.73,77.0,16.71
1006,ilula,64,tz,2018-04-02 23:02:35,88,-7.68,36.04,58.54,2.95
1007,colares,75,pt,2018-04-02 22:30:00,93,38.8,-9.45,57.2,12.75
1008,ferrol,0,es,2018-04-02 22:30:00,81,43.48,-8.23,51.8,9.17
1009,camocim,20,br,2018-04-02 23:02:35,95,-2.9,-40.84,75.01,3.62
1010,vikindu,75,tz,2018-04-02 22:00:00,100,-6.98,39.3,77.0,3.62
1011,sosnovo-ozerskoye,0,ru,2018-04-02 23:02:36,67,52.53,111.54,18.76,10.33
1012,dalby,20,au,2018-04-02 23:02:36,58,-27.18,151.26,80.14,14.81
1013,novobiryusinskiy,48,ru,2018-04-02 23:02:36,65,56.96,97.71,27.76,5.08
1014,vicuna,0,cl,2018-04-02 22:00:00,82,-30.03,-70.71,57.2,2.24
1015,wukari,24,ng,2018-04-02 23:02:36,81,7.87,9.78,78.52,15.48
1016,salto,64,uy,2018-04-02 23:02:36,82,-31.39,-57.96,68.26,7.76
1017,benguela,88,ao,2018-04-02 23:02:37,100,-12.58,13.4,78.52,4.74
1018,rocky mount,1,us,2018-04-02 22:53:00,76,35.94,-77.8,57.2,8.05
1019,ongandjera,92,na,2018-04-02 23:02:37,98,-17.88,15.07,63.22,3.4
1020,porto novo,75,cv,2018-04-02 22:00:00,64,17.02,-25.06,68.0,23.04
1021,mazara del vallo,0,it,2018-04-02 21:55:00,81,37.65,12.59,51.8,6.93
1022,gari,76,ru,2018-04-02 23:02:38,73,59.43,62.35,23.71,6.2
1023,mandan,90,us,2018-04-02 22:55:00,85,46.83,-100.89,17.6,17.22
1024,suntar,0,ru,2018-04-02 23:02:47,48,62.16,117.65,15.34,3.74
1025,madarounfa,0,ne,2018-04-02 23:02:39,56,13.3,7.16,68.08,3.4
1026,loveland,40,us,2018-04-02 22:42:00,25,40.4,-105.08,60.8,6.93
1027,bloomfield,88,us,2018-04-02 22:35:00,95,40.75,-92.42,32.0,6.76
1028,kazanka,90,ua,2018-04-02 22:30:00,91,47.83,32.83,39.2,8.95
1029,talaya,80,ru,2018-04-02 23:02:40,92,55.79,84.89,24.07,8.77
1030,beloha,44,mg,2018-04-02 23:02:40,88,-25.17,45.06,74.38,13.69
1031,sangar,76,ru,2018-04-02 23:02:49,62,63.92,127.47,11.74,12.24
1032,yangjiang,12,cn,2018-04-02 23:02:41,95,21.85,111.96,75.01,6.98
1033,creel,12,mx,2018-04-02 23:00:19,27,27.75,-107.63,54.49,4.97
1034,sol-iletsk,0,ru,2018-04-02 23:02:41,88,51.16,55.0,26.41,10.67
1035,salinas,88,ec,2018-04-02 23:02:50,100,0.49,-78.13,50.98,1.61
1036,wadi musa,24,jo,2018-04-02 23:02:41,90,30.32,35.48,51.43,2.28
1037,muriti,75,tz,2018-04-02 22:00:00,88,-1.99,32.93,69.8,11.41
1038,zaysan,88,kz,2018-04-02 23:02:50,85,47.47,84.87,26.86,3.85
1039,ales,0,fr,2018-04-02 22:30:00,81,44.13,4.08,51.8,3.36
1040,orlik,0,ru,2018-04-02 23:02:42,58,52.51,99.83,10.57,2.62
1041,annau,0,tm,2018-04-02 22:00:00,81,37.89,58.52,46.4,4.7
1042,iquique,0,cl,2018-04-02 22:00:00,64,-20.22,-70.14,69.8,8.05
1043,ordu,12,tr,2018-04-02 23:02:43,91,40.98,37.88,36.76,1.72
1044,craig,75,us,2018-04-02 22:35:00,48,40.52,-107.55,55.4,19.46
1045,rovenki,88,ru,2018-04-02 23:02:44,97,49.91,38.89,33.34,11.01
1046,rockland,1,us,2018-04-02 22:56:00,92,42.13,-70.92,35.6,7.31
1047,korla,68,cn,2018-04-02 23:02:53,54,41.76,86.15,45.04,2.73
1048,ukiah,1,us,2018-04-02 21:56:00,69,39.15,-123.21,66.2,5.82
1049,necochea,0,ar,2018-04-02 23:02:53,88,-38.55,-58.74,55.48,9.22
1050,sovetskaya gavan,8,ru,2018-04-02 23:02:45,67,48.97,140.29,33.52,18.72
1051,mayumba,92,ga,2018-04-02 23:02:45,100,-3.44,10.65,77.08,5.19
1052,basco,12,ph,2018-04-02 23:02:45,100,20.45,121.97,76.27,13.02
1053,keti bandar,0,pk,2018-04-02 23:02:46,100,24.14,67.45,77.89,8.43
1054,santa marta,75,co,2018-04-02 22:00:00,69,11.24,-74.21,80.6,23.04
1055,guiratinga,8,br,2018-04-02 23:02:46,97,-16.35,-53.76,67.81,1.72
1056,ureki,75,ge,2018-04-02 22:30:00,87,42.0,41.78,46.4,16.11
1057,kinablangan,36,ph,2018-04-02 23:02:55,100,7.69,126.55,80.5,10.0
1058,salina cruz,0,mx,2018-04-02 23:02:47,85,16.18,-95.2,74.02,3.96
1059,oranjestad,40,aw,2018-04-02 22:00:00,78,12.52,-70.03,80.6,12.75
1060,nevel,64,ru,2018-04-02 23:02:47,85,56.02,29.92,31.54,19.62
1061,fagernes,8,no,2018-04-02 23:02:47,61,60.99,9.24,-5.27,1.39
1062,baturaja,20,id,2018-04-02 23:02:48,100,-4.12,104.17,81.49,4.41
1063,urambo,92,tz,2018-04-02 23:02:56,99,-5.07,32.07,64.21,2.39
1064,pyshma,36,ru,2018-04-02 23:02:57,63,56.95,63.25,16.06,2.84
1065,kotma,0,in,2018-04-02 23:02:48,39,23.2,81.98,81.76,4.29
1066,hun,8,ly,2018-04-02 23:02:57,81,29.13,15.95,47.29,4.74
1067,madang,92,pg,2018-04-02 23:02:58,97,-5.21,145.81,79.96,4.63
1068,karpathos,0,gr,2018-04-02 22:20:00,67,35.51,27.21,59.0,23.04
1069,erenhot,68,cn,2018-04-02 23:02:58,35,43.65,111.97,33.07,14.7
1070,miandrivazo,44,mg,2018-04-02 23:02:58,93,-19.53,45.46,68.26,2.73
1071,santiago,8,pe,2018-04-02 23:02:50,91,-14.19,-75.71,60.07,2.62
1072,uryupinsk,92,ru,2018-04-02 23:02:59,91,50.8,42.01,35.14,13.69
1073,tra vinh,0,vn,2018-04-02 23:02:51,59,9.93,106.35,89.32,5.86
1074,pangody,48,ru,2018-04-02 23:02:51,72,65.85,74.49,1.12,16.6
1075,almaznyy,92,ru,2018-04-02 23:03:00,100,48.03,40.04,46.66,12.68
1076,yangliuqing,0,cn,2018-04-02 22:30:00,15,39.14,117.0,51.8,15.66
1077,slave lake,1,ca,2018-04-02 22:00:00,66,55.28,-114.77,10.4,10.29
1078,llangefni,64,gb,2018-04-02 21:50:00,100,53.26,-4.31,46.4,10.29
1079,cortez,20,us,2018-04-02 21:53:00,12,37.35,-108.58,64.4,18.34
1080,sattahip,20,th,2018-04-02 22:00:00,61,12.67,100.9,82.4,6.93
1081,kasongo-lunda,88,cd,2018-04-02 23:03:02,99,-6.48,16.82,67.54,2.51
1082,putina,40,pe,2018-04-02 22:00:00,70,-14.91,-69.87,46.4,4.7
1083,gimli,0,ca,2018-04-02 23:02:54,73,50.63,-96.99,0.31,8.21
1084,ndele,0,cf,2018-04-02 23:02:54,59,8.41,20.65,75.91,7.87
1085,ust-nera,68,ru,2018-04-02 23:02:54,78,64.57,143.24,21.19,2.51
1086,selma,20,us,2018-04-02 21:56:00,46,36.57,-119.61,75.2,8.05
1087,jati,8,id,2018-04-02 23:02:56,96,3.58,98.66,81.31,2.73
1088,moron,0,mn,2018-04-02 23:03:05,61,47.38,110.32,23.44,4.41
1089,kareli,0,in,2018-04-02 23:02:57,22,22.93,79.06,84.82,4.41
1090,lebedyan,92,ru,2018-04-02 23:02:57,95,53.01,39.13,33.07,5.64
1091,polessk,0,ru,2018-04-02 22:30:00,92,54.86,21.11,26.6,2.24
1092,trairi,76,br,2018-04-02 23:02:57,100,-3.28,-39.27,81.22,7.99
1093,namatanai,44,pg,2018-04-02 23:02:58,100,-3.66,152.44,83.02,6.42
1094,nivala,92,fi,2018-04-02 23:01:02,88,63.93,24.96,26.59,7.65
1095,great yarmouth,76,gb,2018-04-02 22:50:00,93,52.61,1.73,48.2,10.29
1096,quelimane,0,mz,2018-04-02 23:03:01,92,-17.88,36.89,71.32,2.73
1097,durant,90,us,2018-04-02 22:55:00,100,33.99,-96.37,55.4,4.7
1098,marsh harbour,56,bs,2018-04-02 23:03:02,100,26.54,-77.06,72.76,14.58
1099,esmeraldas,75,ec,2018-04-02 22:00:00,78,-1.87,-79.8,80.6,6.93
1100,areia branca,20,br,2018-04-02 23:00:00,78,-10.76,-37.31,80.6,6.93
1101,derbent,20,ru,2018-04-02 23:03:03,70,42.06,48.29,39.1,2.17
1102,gulu,44,ug,2018-04-02 23:03:12,96,2.77,32.3,62.77,2.73
1103,itoman,75,jp,2018-04-02 22:56:00,60,26.12,127.67,77.0,14.99
1104,yenagoa,64,ng,2018-04-02 23:03:05,93,4.92,6.26,76.72,5.19
1105,weinan,0,cn,2018-04-02 22:00:00,35,34.5,109.46,71.6,2.24
1106,rumonge,92,bi,2018-04-02 23:03:17,100,-3.97,29.44,68.62,4.18
1107,hami,8,cn,2018-04-02 23:03:08,51,42.84,93.51,52.24,10.89
1108,kargopol,92,ru,2018-04-02 23:03:18,97,61.51,38.95,36.76,18.72
1109,port-cartier,5,ca,2018-04-02 22:00:00,59,50.03,-66.88,3.2,2.24
1110,ayagoz,32,kz,2018-04-02 23:03:19,78,47.96,80.43,28.3,11.79
1111,rongai,64,ke,2018-04-02 23:03:10,92,-0.17,35.86,53.77,3.06
1112,diapaga,0,bf,2018-04-02 23:03:11,50,12.07,1.79,71.05,2.95
1113,pochutla,68,mx,2018-04-02 23:03:20,100,15.74,-96.47,82.3,2.39
1114,azangaro,40,pe,2018-04-02 22:00:00,70,-14.91,-70.2,46.4,4.7
1115,caramoran,88,ph,2018-04-02 23:03:12,99,13.98,124.13,80.41,8.77
1116,atherton,75,au,2018-04-02 22:00:00,58,-17.27,145.48,87.8,6.93
1117,mayor pablo lagerenza,92,py,2018-04-02 23:03:13,100,-19.93,-60.77,69.52,6.76
1118,juneau,90,us,2018-04-02 21:56:00,34,58.3,-134.42,37.4,14.99
1119,koscierzyna,0,pl,2018-04-02 22:30:00,86,54.12,17.98,30.2,2.24
1120,maykor,56,ru,2018-04-02 23:03:14,93,59.01,55.89,28.21,13.24
1121,lipari,0,it,2018-04-02 21:55:00,82,38.47,14.95,55.4,5.82
1122,cacequi,36,br,2018-04-02 23:03:23,94,-29.88,-54.83,65.83,5.08
1123,winnemucca,1,us,2018-04-02 22:56:00,27,40.97,-117.74,39.2,11.41
1124,staryy nadym,12,ru,2018-04-02 23:03:15,83,65.61,72.68,1.12,14.25
1125,vidim,56,ru,2018-04-02 23:03:15,47,56.41,103.11,25.15,5.19
1126,soe,0,id,2018-04-02 23:03:16,65,-9.86,124.28,83.65,2.62
1127,gallup,1,us,2018-04-02 22:53:00,15,35.53,-108.74,57.2,13.87
1128,ostersund,0,se,2018-04-02 22:20:00,85,63.18,14.64,17.6,9.17
1129,mareeba,75,au,2018-04-02 22:00:00,58,-16.99,145.42,87.8,6.93
1130,ninh binh,88,vn,2018-04-02 23:03:26,78,20.25,105.97,78.43,10.22
1131,vedeno,88,ru,2018-04-02 23:03:26,93,42.97,46.1,44.77,12.91
1132,nadadores,0,mx,2018-04-02 23:03:18,49,27.03,-101.59,75.28,4.63
1133,ulaanbaatar,20,mn,2018-04-02 23:00:00,25,47.92,106.92,24.8,6.71
1134,magistralnyy,32,ru,2018-04-02 22:59:35,55,56.17,107.45,24.7,5.75
1135,kembe,8,cf,2018-04-02 23:03:18,96,4.62,21.89,70.24,5.64
1136,fushe-arrez,0,al,2018-04-02 23:03:19,98,42.06,20.02,36.49,3.74
1137,itaituba,64,br,2018-04-02 23:03:19,99,-4.26,-55.99,74.02,1.61
1138,toora-khem,8,ru,2018-04-02 23:03:27,44,52.47,96.11,20.56,2.62
1139,ponta do sol,20,pt,2018-04-02 22:30:00,63,32.67,-17.1,60.8,6.93
1140,melfi,0,td,2018-04-02 23:03:28,47,11.06,17.94,68.44,2.73
1141,oktyabrskiy,90,ru,2018-04-02 22:30:00,96,55.61,37.97,35.6,8.95
1142,zdvinsk,76,ru,2018-04-02 23:03:21,94,54.7,78.67,25.6,12.46
1143,san jose,0,gt,2018-04-02 23:03:29,52,16.98,-89.9,80.86,8.32
1144,kaoma,0,zm,2018-04-02 23:03:21,73,-14.8,24.8,65.38,11.23
1145,sumbe,76,ao,2018-04-02 23:03:21,100,-11.2,13.84,76.36,2.06
1146,methoni,0,gr,2018-04-02 21:50:00,81,36.82,21.7,44.6,4.7
1147,wanning,36,cn,2018-04-02 23:03:22,100,18.8,110.4,74.92,5.64
1148,moa,36,cu,2018-04-02 23:03:22,91,20.66,-74.95,66.19,2.51
1149,isla mujeres,40,mx,2018-04-02 21:47:00,73,21.23,-86.73,77.0,9.17
1150,norsup,92,vu,2018-04-02 23:03:31,100,-16.07,167.38,77.62,3.4
1151,tsaratanana,20,mg,2018-04-02 23:03:32,86,-16.8,47.65,71.5,7.31
1152,sibu,75,my,2018-04-02 22:00:00,66,2.29,111.83,86.0,3.36
1153,fethiye,0,tr,2018-04-02 22:20:00,44,36.62,29.12,59.0,12.75
1154,bunbury,0,au,2018-04-02 23:03:33,49,-33.33,115.63,84.19,10.56
1155,aripuana,24,br,2018-04-02 23:03:25,97,-9.17,-60.63,73.39,2.06
1156,hammerfest,40,no,2018-04-02 21:50:00,86,70.66,23.68,26.6,11.41
1157,vasilyevskiy mokh,88,ru,2018-04-02 23:03:34,96,57.01,35.92,33.43,14.47
1158,carauari,48,br,2018-04-02 23:03:26,94,-4.88,-66.9,76.99,2.51
1159,curaca,56,br,2018-04-02 23:03:26,52,-8.99,-39.91,83.47,9.44
1160,zhicheng,0,cn,2018-04-02 23:03:26,47,35.04,112.59,79.78,11.34
1161,palauig,12,ph,2018-04-02 23:03:35,91,15.44,119.9,81.22,2.73
1162,kidal,80,ml,2018-04-02 23:03:27,30,18.44,1.41,67.54,4.41
1163,boundiali,44,ci,2018-04-02 23:03:36,74,9.53,-6.48,74.02,8.21
1164,nador,0,ma,2018-04-02 22:30:00,72,35.17,-2.93,60.8,3.36
1165,ozark,90,us,2018-04-02 22:52:00,100,37.02,-93.21,50.0,11.41
1166,balkanabat,0,tm,2018-04-02 23:03:37,91,39.51,54.36,40.72,4.63
1167,lovozero,88,ru,2018-04-02 23:03:37,91,68.01,35.02,24.34,6.64
1168,lafia,24,ng,2018-04-02 23:03:38,86,8.5,8.51,76.27,9.89
1169,lapua,75,fi,2018-04-02 22:50:00,85,62.97,23.01,26.6,10.29
1170,sola,92,vu,2018-04-02 23:03:38,100,-13.88,167.55,79.06,11.23
1171,taguatinga,40,br,2018-04-02 22:00:00,88,-15.83,-48.06,68.0,3.36
1172,gobo,20,jp,2018-04-02 22:30:00,68,33.89,135.15,66.2,3.36
1173,champerico,56,gt,2018-04-02 23:03:31,100,14.3,-91.92,75.19,1.72
1174,nicolas bravo,5,mx,2018-04-02 22:00:00,11,24.39,-104.74,73.4,17.22
1175,qeshm,0,ir,2018-04-02 22:30:00,88,26.96,56.27,75.2,3.18
1176,ca mau,0,vn,2018-04-02 23:03:32,70,9.18,105.15,87.52,11.01
1177,ragama,40,lk,2018-04-02 22:10:00,78,7.03,79.92,78.8,3.36
1178,don benito,48,es,2018-04-02 23:03:40,96,38.95,-5.86,50.26,7.87
1179,corowa,0,au,2018-04-02 22:00:00,36,-36.0,146.39,77.0,5.82
1180,grand gaube,75,mu,2018-04-02 22:00:00,88,-20.01,57.66,80.6,14.99
1181,orotukan,88,ru,2018-04-02 23:03:33,98,62.26,151.67,25.06,4.29
1182,shancheng,88,cn,2018-04-02 23:03:33,90,26.9,117.17,70.69,3.18
1183,celestun,0,mx,2018-04-02 23:03:33,86,20.87,-90.4,81.67,18.28
1184,keita,8,ne,2018-04-02 23:03:33,64,14.76,5.77,62.77,2.73
1185,jiangyou,0,cn,2018-04-02 23:03:33,46,31.78,104.73,76.45,4.07
1186,cilegon,20,id,2018-04-02 22:30:00,74,-6.02,106.05,86.0,6.93
1187,saint-pierre,0,re,2018-04-02 22:30:00,69,-21.34,55.48,77.0,5.82
1188,willowmore,88,za,2018-04-02 23:03:34,92,-33.3,23.49,56.74,2.62
1189,kortkeros,0,ru,2018-04-02 22:30:00,74,61.81,51.56,35.6,15.66
1190,barranca,48,pe,2018-04-02 23:03:43,97,-10.75,-77.76,67.99,10.67
1191,gorin,76,ru,2018-04-02 23:03:35,55,51.2,136.66,29.56,12.46
1192,dekar,0,bw,2018-04-02 23:03:44,72,-21.53,21.93,55.84,8.77
1193,luwuk,12,id,2018-04-02 23:03:36,100,-0.95,122.79,79.96,2.17
1194,melo,20,uy,2018-04-02 23:03:45,95,-32.37,-54.17,65.65,6.31
1195,kharp,0,ru,2018-04-02 23:03:45,51,66.82,65.8,-9.14,3.85
1196,litovko,48,ru,2018-04-02 23:03:46,33,49.24,135.18,33.07,13.13
1197,benidorm,0,es,2018-04-02 22:30:00,93,38.54,-0.13,50.0,1.12
1198,yeppoon,75,au,2018-04-02 22:30:00,54,-23.13,150.74,84.2,18.34
1199,constitucion,8,cl,2018-04-02 23:03:47,96,-35.33,-72.42,54.31,3.29
1200,tomatlan,0,mx,2018-04-02 23:03:47,75,19.93,-105.25,66.37,3.18
1201,berdigestyakh,44,ru,2018-04-02 23:03:39,47,62.1,126.7,9.76,12.01
1202,tomelloso,76,es,2018-04-02 23:03:39,95,39.16,-3.02,45.31,11.01
1203,palmer,1,us,2018-04-02 21:56:00,27,61.6,-149.11,42.8,25.28
1204,skelleftea,68,se,2018-04-02 22:20:00,58,64.75,20.95,24.8,8.05
1205,dondo,68,mz,2018-04-02 23:03:40,83,-19.62,34.74,76.09,4.18
1206,sinop,92,tr,2018-04-02 23:03:49,93,42.03,35.15,48.46,11.23
1207,inongo,92,cd,2018-04-02 23:03:49,98,-1.93,18.29,75.1,2.95
1208,abadan,0,ir,2018-04-02 22:00:00,51,30.36,48.26,62.6,2.24
1209,marrakesh,0,ma,2018-04-02 22:30:00,66,31.63,-7.99,55.4,3.36
1210,olean,20,us,2018-04-02 22:56:00,64,42.08,-78.43,33.8,3.36
1211,foumban,12,cm,2018-04-02 23:03:42,94,5.73,10.9,56.02,2.28
1212,goundi,8,td,2018-04-02 23:03:42,51,9.36,17.37,69.88,5.64
1213,luang prabang,75,la,2018-04-02 22:00:00,69,19.89,102.14,77.0,2.24
1214,cran-gevrier,0,fr,2018-04-02 22:30:00,86,45.9,6.1,48.2,3.36
1215,petatlan,5,mx,2018-04-02 21:47:00,78,17.52,-101.27,78.8,6.87
1216,ucluelet,92,ca,2018-04-02 23:03:52,79,48.94,-125.55,37.21,2.62
1217,impfondo,36,cg,2018-04-02 23:03:52,99,1.64,18.07,72.04,2.51
1218,morgan city,90,us,2018-04-02 22:40:00,88,29.7,-91.21,73.4,9.17
1219,sarkand,76,kz,2018-04-02 23:03:44,100,45.41,79.91,30.82,4.52
1220,novopokrovka,44,ru,2018-04-02 23:03:45,47,45.85,134.51,39.46,10.0
1221,north bend,1,us,2018-04-02 22:56:00,65,43.41,-124.22,46.4,12.75
1222,udachnyy,0,ru,2018-04-02 23:03:53,59,66.42,112.4,9.94,4.97
1223,safranbolu,64,tr,2018-04-02 23:03:45,98,41.25,32.69,40.36,2.62
1224,shima,92,cn,2018-04-02 23:03:45,72,36.4,117.89,53.41,18.5
1225,ballina,24,au,2018-04-02 23:03:54,100,-28.87,153.57,75.28,8.99
1226,aleksandrovka,92,ru,2018-04-02 23:03:55,90,51.63,41.9,34.69,15.14
1227,senj,32,hr,2018-04-02 22:30:00,71,45.35,13.91,53.6,4.7
1228,aquiraz,40,br,2018-04-02 23:00:00,88,-3.9,-38.39,78.8,3.36
1229,diplo,48,pk,2018-04-02 23:03:47,87,24.47,69.59,73.21,9.33
1230,south venice,1,us,2018-04-02 22:35:00,88,27.05,-82.42,73.4,2.62
1231,garowe,92,so,2018-04-02 23:03:47,93,8.41,48.48,71.86,4.18
1232,khandyga,80,ru,2018-04-02 23:03:56,52,62.65,135.58,33.52,4.29
1233,mansa,68,zm,2018-04-02 23:03:48,97,-11.21,28.88,62.14,5.64
1234,tandalti,0,sd,2018-04-02 23:03:57,23,13.01,31.87,66.46,8.1
1235,kabugao,68,ph,2018-04-02 23:03:48,88,18.02,121.18,73.66,2.39
1236,leh,88,in,2018-04-02 23:03:49,89,34.16,77.58,8.14,0.94
1237,dumbraveni,0,ro,2018-04-02 22:30:00,92,46.23,24.57,32.0,4.7
1238,la tuque,80,ca,2018-04-02 23:00:31,61,47.44,-72.79,22.72,4.29
1239,camapua,64,br,2018-04-02 23:03:49,94,-19.53,-54.04,67.36,2.06
1240,jurm,100,af,2018-04-02 23:03:50,96,36.86,70.83,32.98,1.61
1241,deer lake,40,ca,2018-04-02 22:00:00,68,49.18,-57.43,26.6,2.24
1242,buta,12,cd,2018-04-02 23:03:50,96,2.79,24.73,73.39,1.95
1243,shenjiamen,48,cn,2018-04-02 23:03:59,87,29.96,122.3,62.59,18.61
1244,ust-maya,88,ru,2018-04-02 23:03:51,65,60.42,134.54,29.02,5.19
1245,elesbao veloso,44,br,2018-04-02 23:00:37,94,-6.2,-42.14,71.5,2.62
1246,shingu,20,jp,2018-04-02 22:00:00,68,33.72,135.99,66.2,6.93
1247,mbekenyera,92,tz,2018-04-02 23:04:00,95,-10.0,38.98,71.41,2.39
1248,dawlatabad,0,af,2018-04-02 23:03:52,81,36.41,64.91,49.9,4.18
1249,westport,32,nz,2018-04-02 23:03:52,93,-41.75,171.6,61.42,2.95
1250,zhanaozen,0,kz,2018-04-02 23:03:52,79,43.35,52.85,44.14,15.03
1251,puerto escondido,20,co,2018-04-02 22:00:00,83,9.0,-76.26,78.8,6.93
1252,teahupoo,75,pf,2018-04-02 22:30:00,69,-17.83,-149.27,82.4,10.29
1253,una,0,in,2018-04-02 23:04:01,71,20.82,71.04,74.29,4.74
1254,udimskiy,92,ru,2018-04-02 23:03:53,92,61.14,45.92,34.15,17.94
1255,karasjok,88,no,2018-04-02 23:03:54,89,69.47,25.52,23.98,8.43
1256,bubaque,0,gw,2018-04-02 23:03:54,100,11.28,-15.83,78.25,13.8
1257,niigata,75,jp,2018-04-02 22:12:00,43,37.91,139.04,71.6,17.22
1258,bitung,20,id,2018-04-02 22:30:00,66,1.44,125.19,86.0,4.7
1259,tadine,76,nc,2018-04-02 23:04:03,94,-21.55,167.88,79.96,18.05
1260,tezu,0,in,2018-04-02 23:03:55,37,27.93,96.16,72.94,0.72
1261,umm lajj,48,sa,2018-04-02 23:03:55,100,25.02,37.27,63.58,5.41
1262,paciran,0,id,2018-04-02 23:04:04,90,-6.9,112.33,85.9,4.18
1263,jaciara,80,br,2018-04-02 23:04:04,100,-15.95,-54.98,70.69,3.4
1264,teknaf,36,bd,2018-04-02 23:04:05,63,20.86,92.31,83.02,4.97
1265,nueva gerona,56,cu,2018-04-02 23:03:57,93,21.88,-82.8,74.74,6.64
1266,copiapo,0,cl,2018-04-02 22:00:00,82,-27.37,-70.33,59.0,4.7
1267,innisfail,92,au,2018-04-02 23:04:06,89,-17.52,146.03,71.77,9.44
1268,garissa,92,ke,2018-04-02 23:03:58,95,-0.46,39.64,72.76,2.95
1269,fort morgan,1,us,2018-04-02 22:35:00,30,40.25,-103.8,55.4,13.87
1270,mega,92,et,2018-04-02 23:03:58,87,4.06,38.32,61.15,3.62
1271,luau,12,ao,2018-04-02 23:03:58,95,-10.71,22.22,64.12,2.28
1272,greeneville,1,us,2018-04-02 22:10:00,100,36.16,-82.83,57.2,1.95
1273,yerofey pavlovich,32,ru,2018-04-02 23:04:07,32,53.97,121.97,17.32,9.78
1274,la rioja,0,ar,2018-04-02 23:03:59,82,-29.41,-66.86,64.21,2.73
1275,gornja koprivna,8,ba,2018-04-02 23:03:59,59,45.01,15.95,44.86,5.19
1276,mocuba,80,mz,2018-04-02 23:03:59,94,-16.84,36.99,70.51,2.95
1277,baie-comeau,1,ca,2018-04-02 22:00:00,78,49.22,-68.15,21.2,2.24
1278,verkhoyansk,76,ru,2018-04-02 23:03:59,80,67.55,133.39,25.69,3.62
1279,istisu,24,az,2018-04-02 23:04:08,84,40.95,48.07,36.76,2.51
1280,wenling,64,cn,2018-04-02 23:04:00,76,28.38,121.38,68.17,5.75
1281,mao,0,td,2018-04-02 23:04:00,18,14.12,15.31,69.43,10.33
1282,zanzibar,75,tz,2018-04-02 22:00:00,94,-6.16,39.2,77.0,6.76
1283,kalabo,32,zm,2018-04-02 23:04:01,53,-15.0,22.67,73.75,9.78
1284,bochil,75,mx,2018-04-02 21:46:00,54,17.0,-92.89,82.4,10.29
1285,najran,20,sa,2018-04-02 22:00:00,32,17.54,44.22,68.0,5.41
1286,porto santo,40,pt,2018-04-02 22:30:00,87,33.07,-16.34,60.8,11.41
1287,cerro cama,0,pa,2018-04-02 22:00:00,73,9.03,-79.91,77.0,6.93
1288,inta,20,ru,2018-04-02 23:04:02,57,66.04,60.13,2.74,2.39
1289,le port,40,re,2018-04-02 22:30:00,73,-20.94,55.29,77.0,8.05
1290,muroto,20,jp,2018-04-02 22:00:00,60,33.37,134.14,69.8,8.05
1291,cooma,8,au,2018-04-02 23:04:03,89,-36.24,149.13,64.03,3.4
1292,mattru,8,sl,2018-04-02 23:04:12,98,7.62,-11.83,75.19,3.4
1293,sun valley,40,us,2018-04-02 21:51:00,28,43.7,-114.35,28.4,18.34
1294,pishin,76,pk,2018-04-02 23:04:13,41,30.58,67.0,56.2,2.95
1295,sandwick,92,gb,2018-04-02 21:50:00,100,54.57,-2.89,33.8,9.17
1296,weligama,36,lk,2018-04-02 23:04:14,93,5.97,80.42,82.93,6.08
1297,miram shah,88,pk,2018-04-02 23:04:06,95,33.01,70.07,62.14,1.95
1298,houma,90,us,2018-04-02 22:40:00,88,29.6,-90.72,73.4,9.17
1299,half moon bay,75,us,2018-04-02 21:56:00,62,37.46,-122.43,66.2,24.16
1300,chaoyang,92,cn,2018-04-02 23:04:07,65,41.58,120.44,37.66,17.72
1301,cockburn town,92,tc,2018-04-02 23:04:08,100,21.46,-71.14,75.82,13.8
1302,bogatynia,76,pl,2018-04-02 23:04:08,70,50.91,14.96,38.11,7.2
1303,beberibe,40,br,2018-04-02 23:00:00,88,-4.18,-38.13,78.8,3.36
1304,awjilah,0,ly,2018-04-02 23:04:08,68,29.14,21.3,54.04,8.66
1305,smithers,75,ca,2018-04-02 22:00:00,55,54.78,-127.17,32.0,5.82
1306,kabompo,56,zm,2018-04-02 23:04:17,64,-13.6,24.21,70.69,9.1
1307,nangomba,80,tz,2018-04-02 23:04:09,96,-10.9,38.52,69.61,2.95
1308,north battleford,1,ca,2018-04-02 22:00:00,61,52.78,-108.3,15.8,6.93
1309,atambua,0,id,2018-04-02 23:04:09,95,-9.11,124.89,84.91,1.16
1310,veraval,0,in,2018-04-02 23:04:09,91,20.9,70.37,76.27,10.33
1311,limoux,90,fr,2018-04-02 22:30:00,93,43.05,2.22,51.8,19.46
1312,jorpeland,92,no,2018-04-02 22:50:00,59,59.02,6.04,35.6,9.17
1313,ust-koksa,68,ru,2018-04-02 23:04:19,74,50.27,85.62,18.49,2.62
1314,kuryk,0,kz,2018-04-02 23:04:10,80,43.18,51.68,47.38,18.72
1315,rajo khanani,0,pk,2018-04-02 23:04:11,72,24.98,68.85,76.36,9.66
1316,katangli,8,ru,2018-04-02 23:04:11,83,51.71,143.23,32.44,24.87
1317,inhambane,80,mz,2018-04-02 23:04:20,100,-23.87,35.38,75.64,4.63
1318,badvel,0,in,2018-04-02 22:30:00,74,14.74,79.07,86.0,6.93
1319,bull savanna,80,jm,2018-04-02 23:04:12,94,17.89,-77.59,69.16,1.83
1320,yatou,0,cn,2018-04-02 23:04:12,37,33.81,104.32,59.26,1.95
1321,kampene,92,cd,2018-04-02 23:04:12,100,-3.59,26.67,67.72,2.73
1322,kalaleh,0,ir,2018-04-02 23:04:13,81,37.38,55.49,43.06,1.95
1323,santa rita,0,br,2018-04-02 22:00:00,83,-7.13,-34.98,77.0,4.7
1324,aljezur,80,pt,2018-04-02 23:04:14,99,37.31,-8.8,58.09,13.8
1325,mizdah,0,ly,2018-04-02 23:04:14,67,31.45,12.98,48.64,4.74
1326,mehran,0,ir,2018-04-02 22:30:00,48,33.12,46.17,44.6,6.93
1327,nizhniy baskunchak,44,ru,2018-04-02 23:04:24,77,48.22,46.83,40.45,14.47
1328,blagoyevo,92,ru,2018-04-02 23:04:24,83,63.37,47.92,34.51,11.01
1329,alamos,0,mx,2018-04-02 23:02:07,19,27.02,-108.93,69.61,3.18
1330,great falls,90,us,2018-04-02 22:53:00,92,47.5,-111.29,12.2,5.82
1331,bouafle,12,ci,2018-04-02 23:04:16,92,6.99,-5.74,74.11,7.43
1332,pontianak,12,id,2018-04-02 23:04:17,87,-0.02,109.34,84.91,4.18
1333,burgersdorp,92,za,2018-04-02 23:04:17,100,-30.99,26.32,54.94,3.4
1334,goryachegorsk,80,ru,2018-04-02 23:04:17,77,55.41,88.92,21.37,6.76
1335,manhuacu,80,br,2018-04-02 23:04:26,86,-20.26,-42.03,66.91,3.96
1336,upata,20,ve,2018-04-02 23:04:18,64,8.02,-62.41,79.33,10.78
1337,banjar,20,id,2018-04-02 23:04:18,78,-7.37,108.54,83.2,3.62
1338,antalaha,76,mg,2018-04-02 23:04:18,100,-14.9,50.28,75.01,7.54
1339,sungairaya,0,id,2018-04-02 23:04:18,69,0.7,108.9,87.16,3.62
1340,boffa,64,gn,2018-04-02 23:04:19,80,10.18,-14.04,74.65,3.18
1341,dakar,40,sn,2018-04-02 22:00:00,100,14.69,-17.45,62.6,3.36
1342,dvinskoy,92,ru,2018-04-02 23:04:27,96,62.16,45.12,35.95,13.24
1343,corinto,12,ni,2018-04-02 23:04:28,49,12.48,-87.17,83.02,3.74
1344,ivnya,75,ru,2018-04-02 22:30:00,100,51.06,36.14,33.8,11.18
1345,rochefort,0,fr,2018-04-02 22:30:00,81,45.94,-0.97,53.6,9.17
1346,cardston,40,ca,2018-04-02 22:00:00,84,49.2,-113.32,6.8,3.36
1347,upington,0,za,2018-04-02 22:00:00,72,-28.46,21.24,68.0,6.93
1348,saint-ambroise,20,ca,2018-04-02 22:00:00,68,48.56,-71.32,26.6,5.19
1349,baiao,88,br,2018-04-02 23:04:21,98,-2.79,-49.67,75.64,2.95
1350,sumbawanga,92,tz,2018-04-02 23:04:22,100,-7.95,31.62,65.74,8.43
1351,kitimat,90,ca,2018-04-02 22:00:00,64,54.02,-128.69,35.6,1.72
1352,gewane,0,et,2018-04-02 23:04:31,93,10.16,40.66,62.77,2.73
1353,port pirie,0,au,2018-04-02 22:00:00,60,-33.18,138.01,68.0,13.87
1354,redlands,75,us,2018-04-02 21:58:00,55,34.06,-117.19,66.2,9.17
1355,kombissiri,20,bf,2018-04-02 22:00:00,34,12.07,-1.34,82.4,2.73
1356,voznesenye,68,ru,2018-04-02 23:04:32,89,61.02,35.48,35.5,16.82
1357,plast,8,ru,2018-04-02 23:04:32,68,54.37,60.81,18.94,7.43
1358,bakhmach,56,ua,2018-04-02 23:04:33,94,51.18,32.81,33.43,11.56
1359,rio bravo,1,mx,2018-04-02 22:15:00,61,27.36,-99.48,82.4,12.75
1360,pemba,75,mz,2018-04-02 22:00:00,94,-12.97,40.52,75.2,6.93
1361,goundam,80,ml,2018-04-02 23:04:25,46,16.42,-3.66,75.91,2.95
1362,teguise,20,es,2018-04-02 23:04:25,99,29.06,-13.56,60.43,8.21
1363,kuusamo,90,fi,2018-04-02 22:50:00,85,65.96,29.19,24.8,8.05
1364,hay river,40,ca,2018-04-02 22:00:00,59,60.82,-115.79,1.4,4.7
1365,birao,0,cf,2018-04-02 23:04:37,44,10.3,22.78,68.08,6.64
1366,dodge city,1,us,2018-04-02 21:54:00,44,37.75,-100.02,62.6,20.8
1367,tipp city,90,us,2018-04-02 22:56:00,86,39.96,-84.17,42.8,16.11
1368,neumunster,90,de,2018-04-02 22:50:00,100,54.07,9.98,44.6,9.17
1369,zhuhai,75,cn,2018-04-02 22:00:00,80,40.71,112.04,32.0,6.71
1370,menongue,68,ao,2018-04-02 23:04:39,97,-14.66,17.68,62.14,2.28
1371,arlit,64,ne,2018-04-02 23:04:31,36,18.74,7.39,69.07,2.62
1372,terra roxa,0,br,2018-04-02 22:00:00,88,-20.79,-48.33,73.4,4.7
1373,dicabisagan,100,ph,2018-04-02 22:59:36,100,17.08,122.42,73.66,6.53
1374,neyshabur,0,ir,2018-04-02 23:04:40,87,36.21,58.79,40.27,2.84
1375,kosa,92,ru,2018-04-02 23:04:32,91,59.94,54.99,27.85,13.24
1376,tahlequah,90,us,2018-04-02 22:55:00,100,35.92,-94.97,57.2,5.82
1377,aguas belas,8,br,2018-04-02 23:02:13,92,-9.11,-37.12,71.14,5.75
1378,kedougou,48,sn,2018-04-02 23:04:41,77,12.56,-12.19,74.56,6.08
1379,ancona,12,it,2018-04-02 23:04:42,95,43.6,13.51,53.86,1.16
1380,obo,44,cf,2018-04-02 23:04:34,95,5.39,26.49,67.54,2.73
1381,malkara,0,tr,2018-04-02 23:04:34,70,40.89,26.9,41.44,5.75
1382,ionia,1,us,2018-04-02 22:39:00,64,42.99,-85.07,39.2,3.36
1383,tiarei,75,pf,2018-04-02 22:30:00,69,-17.53,-149.33,82.4,10.29
1384,mandera,92,ke,2018-04-02 23:04:43,98,3.94,41.87,68.98,7.76
1385,quimper,88,fr,2018-04-02 22:30:00,93,48.0,-4.1,51.8,14.99
1386,kangasala,0,fi,2018-04-02 22:50:00,85,61.46,24.07,24.8,5.82
1387,paramonga,48,pe,2018-04-02 23:04:44,97,-10.68,-77.82,67.99,10.67
1388,zhigalovo,0,ru,2018-04-02 23:04:45,37,54.81,105.15,26.59,4.97
1389,talakan,68,ru,2018-04-02 23:04:37,32,50.29,130.28,29.47,15.37
1390,ntungamo,92,ug,2018-04-02 23:04:37,98,-0.87,30.27,62.14,2.62
1391,shieli,0,kz,2018-04-02 23:04:37,58,44.18,66.74,41.62,20.85
1392,jiuquan,0,cn,2018-04-02 23:04:46,79,39.73,98.49,38.29,4.29
1393,treinta y tres,68,uy,2018-04-02 23:04:38,95,-33.23,-54.39,62.86,5.75
1394,crotone,0,it,2018-04-02 23:04:38,100,39.09,17.12,56.47,9.66
1395,shetpe,0,kz,2018-04-02 23:04:38,63,44.14,52.16,44.95,14.47
1396,urusha,48,ru,2018-04-02 23:04:47,29,54.05,122.9,20.11,11.23
1397,porbandar,0,in,2018-04-02 23:04:47,96,21.64,69.61,74.56,6.98
1398,tamiahua,0,mx,2018-04-02 23:04:48,87,21.28,-97.45,77.44,21.3
1399,sydney,40,au,2018-04-02 22:30:00,64,-33.85,151.22,73.4,9.17
1400,polunochnoye,80,ru,2018-04-02 23:04:40,78,60.87,60.43,20.65,6.42
1401,sorong,76,id,2018-04-02 23:04:48,100,-0.86,131.25,80.41,4.29
1402,miri,75,my,2018-04-02 22:00:00,70,4.41,114.01,86.0,2.24
1403,pontivy,75,fr,2018-04-02 22:30:00,93,48.06,-2.97,51.8,14.99
1404,dutse,0,ng,2018-04-02 23:04:41,61,11.76,9.34,67.9,3.4
1405,plouzane,90,fr,2018-04-02 22:30:00,93,48.38,-4.62,51.8,21.92
1406,lhokseumawe,48,id,2018-04-02 23:04:42,100,5.18,97.15,83.56,6.08
1407,russellville,40,us,2018-04-02 21:53:00,81,35.28,-93.13,53.6,5.82
1408,gravdal,68,no,2018-04-02 22:50:00,59,59.79,5.78,33.8,9.17
1409,aguai,0,br,2018-04-02 22:00:00,88,-22.06,-46.98,73.4,1.12
1410,itapirapua,24,br,2018-04-02 23:04:51,88,-15.82,-50.61,71.95,3.96
1411,muravlenko,24,ru,2018-04-02 23:04:43,79,63.79,74.5,-0.77,13.69
1412,victor harbor,20,au,2018-04-02 22:30:00,49,-35.55,138.62,69.8,16.11
1413,svetlaya,0,ru,2018-04-02 23:04:44,75,46.54,138.33,39.28,15.7
1414,bougouni,88,ml,2018-04-02 23:04:52,68,11.42,-7.49,74.56,2.39
1415,toyooka,75,jp,2018-04-02 22:00:00,41,35.55,134.82,75.2,4.7
1416,mhlume,80,sz,2018-04-02 23:04:53,96,-26.03,31.81,67.45,1.95
1417,andujar,92,es,2018-04-02 23:04:45,93,38.04,-4.05,45.94,3.74
1418,hudiksvall,0,se,2018-04-02 23:04:54,100,61.73,17.1,25.42,10.0
1419,kasane,0,bw,2018-04-02 23:04:46,81,-17.8,25.16,57.28,2.95
1420,concordia,64,ar,2018-04-02 23:04:46,82,-31.4,-58.02,68.26,7.76
1421,harindanga,0,in,2018-04-02 23:00:00,58,22.04,88.32,82.4,6.93
1422,mihijam,0,in,2018-04-02 23:04:47,61,23.85,86.88,79.96,4.52
1423,rio do sul,44,br,2018-04-02 23:04:47,90,-27.22,-49.64,64.21,4.18
1424,general pico,0,ar,2018-04-02 23:04:56,88,-35.66,-63.75,56.11,6.76
1425,zarubino,92,ru,2018-04-02 23:04:47,63,42.65,131.06,44.05,9.22
1426,tuapse,88,ru,2018-04-02 23:04:48,93,44.1,39.07,44.05,5.64
1427,xunchang,0,cn,2018-04-02 23:04:56,56,28.45,104.71,78.79,2.73
1428,porterville,1,us,2018-04-02 21:56:00,49,36.07,-119.02,75.2,6.93
1429,bail hongal,0,in,2018-04-02 23:04:49,60,15.82,74.87,76.81,4.63
1430,singarayakonda,0,in,2018-04-02 23:04:49,70,15.25,80.02,83.56,5.19
1431,igrim,20,ru,2018-04-02 23:04:49,67,63.19,64.42,10.84,6.31
1432,jinan,92,cn,2018-04-02 23:04:58,75,36.65,117.11,56.02,21.3
1433,rabo de peixe,75,pt,2018-04-02 22:30:00,67,37.8,-25.58,59.0,18.34
1434,kulhudhuffushi,32,mv,2018-04-02 23:04:50,100,6.62,73.07,82.84,2.06
1435,zipaquira,40,co,2018-04-02 22:00:00,87,5.02,-74.0,55.4,2.24
1436,ilo,32,pe,2018-04-02 23:04:59,97,-17.65,-71.34,56.92,2.17
1437,beyneu,0,kz,2018-04-02 23:05:00,68,45.32,55.19,38.92,16.49
1438,golden,56,ca,2018-04-02 23:00:47,70,51.3,-116.96,16.6,1.72
1439,praya,40,id,2018-04-02 22:30:00,79,-8.71,116.27,86.0,5.82
1440,grand island,90,us,2018-04-02 22:56:00,92,40.92,-98.34,32.0,16.11
1441,san jeronimo,0,mx,2018-04-02 23:05:01,14,29.37,-110.79,73.03,10.78
1442,mingshui,68,cn,2018-04-02 23:05:01,67,22.81,109.89,79.42,8.21
1443,winslow,1,us,2018-04-02 21:56:00,11,35.02,-110.7,64.4,14.99
1444,prieska,92,za,2018-04-02 23:04:53,93,-29.67,22.74,58.36,2.73
1445,mori,0,jp,2018-04-02 23:05:02,67,34.86,137.94,70.78,7.2
1446,borogontsy,92,ru,2018-04-02 23:05:03,65,62.67,131.17,18.4,11.01
1447,tairua,12,nz,2018-04-02 23:00:49,55,-37.02,175.85,72.94,2.39
1448,sterling,75,us,2018-04-02 22:38:00,80,39.0,-77.4,48.2,8.21
1449,inyonga,36,tz,2018-04-02 23:05:03,96,-6.72,32.06,62.32,2.28
1450,lamu,88,ke,2018-04-02 23:04:55,99,-2.27,40.9,78.79,7.31
1451,saint simons,1,us,2018-04-02 22:36:00,82,31.14,-81.39,69.8,8.05
1452,kamaishi,75,jp,2018-04-02 22:00:00,81,39.28,141.86,51.8,3.36
1453,maniitsoq,0,gl,2018-04-02 23:05:05,57,65.42,-52.9,20.11,5.97
1454,posadas,0,ar,2018-04-02 22:00:00,88,-27.37,-55.9,69.8,1.12
1455,oriximina,80,br,2018-04-02 23:04:57,98,-1.77,-55.87,76.45,2.28
1456,sabathu,88,in,2018-04-02 23:05:06,52,31.01,76.99,70.51,3.74
1457,banda aceh,8,id,2018-04-02 23:05:06,87,5.56,95.32,82.39,2.73
1458,brigantine,90,us,2018-04-02 22:56:00,86,39.41,-74.36,39.2,6.93
1459,richmond,1,us,2018-04-02 22:40:00,66,37.94,-122.35,69.8,4.74
1460,cumbernauld,90,gb,2018-04-02 22:50:00,93,55.95,-3.99,37.4,14.99
1461,lae,75,pg,2018-04-02 22:00:00,62,-6.72,146.98,89.6,11.41
1462,la baneza,92,es,2018-04-02 23:05:08,92,42.3,-5.9,43.42,13.13
1463,san ramon de la nueva oran,76,ar,2018-04-02 23:05:08,96,-23.13,-64.33,65.29,2.06
1464,ndioum,0,sn,2018-04-02 23:05:00,38,16.51,-14.65,70.51,10.22
1465,yaring,40,th,2018-04-02 22:00:00,74,6.87,101.37,84.2,9.17
1466,peterborough,1,us,2018-04-02 22:56:00,92,42.87,-71.95,35.6,3.36
1467,thaba-tseka,36,ls,2018-04-02 23:05:09,93,-29.52,28.61,40.54,1.16
1468,mahajanga,40,mg,2018-04-02 22:00:00,94,-15.72,46.32,75.2,2.24
1469,lahaina,90,us,2018-04-02 22:41:00,94,20.87,-156.68,77.0,19.46
1470,yangambi,0,cd,2018-04-02 23:05:02,99,0.77,24.47,71.05,2.73
1471,sassandra,24,ci,2018-04-02 23:05:10,97,4.95,-6.09,80.77,11.34
1472,leona vicario,40,mx,2018-04-02 21:51:00,73,20.99,-87.21,77.0,9.17
1473,lai,0,td,2018-04-02 23:05:02,67,9.4,16.3,70.06,3.62
1474,dir,92,pk,2018-04-02 23:05:03,100,35.21,71.88,37.66,1.39
1475,hailar,8,cn,2018-04-02 23:05:11,36,49.2,119.7,27.85,19.51
1476,hearst,20,ca,2018-04-02 23:05:03,63,49.69,-83.67,3.64,5.41
1477,pemberton,64,ca,2018-04-02 23:05:12,67,50.32,-122.8,24.61,1.61
1478,ayame,36,ci,2018-04-02 23:05:04,99,5.61,-3.16,77.71,5.75
1479,novoagansk,56,ru,2018-04-02 23:05:04,71,61.94,76.66,1.57,7.31
1480,mirzapur,0,bd,2018-04-02 23:05:13,67,23.02,90.83,84.19,3.62
1481,chisinau,0,md,2018-04-02 22:30:00,86,47.01,28.86,33.8,6.93
1482,williamsport,1,us,2018-04-02 22:54:00,74,41.25,-77.0,35.6,4.7
1483,havre,1,us,2018-04-02 22:53:00,92,48.55,-109.68,12.2,5.82
1484,anzhero-sudzhensk,76,ru,2018-04-02 23:05:14,88,56.08,86.02,24.07,7.43
1485,tomohon,20,id,2018-04-02 22:30:00,66,1.33,124.84,86.0,4.7
1486,navahrudak,0,by,2018-04-02 23:05:15,87,53.59,25.82,28.57,9.22
1487,kalanwali,48,in,2018-04-02 23:05:15,74,29.83,74.98,73.57,15.7
1488,cangucu,20,br,2018-04-02 23:05:07,95,-31.39,-52.68,64.39,4.29
1489,kurilsk,92,ru,2018-04-02 23:05:07,92,45.23,147.88,37.39,18.16
1490,ust-omchug,76,ru,2018-04-02 23:05:10,69,61.13,149.63,24.61,7.76
1491,san-pedro,8,ci,2018-04-02 23:05:11,94,4.75,-6.64,77.44,8.21
1492,peniche,75,pt,2018-04-02 22:30:00,93,39.36,-9.38,55.4,12.75
1493,larvik,64,no,2018-04-02 22:50:00,92,59.05,10.04,24.8,3.36
1494,sept-iles,5,ca,2018-04-02 22:00:00,59,50.2,-66.38,3.2,2.24
1495,dalaba,68,gn,2018-04-02 23:05:21,91,10.69,-12.25,64.57,2.73
1496,bani walid,0,ly,2018-04-02 23:05:13,81,31.76,14.0,45.49,3.29
1497,mundo nuevo,5,mx,2018-04-02 21:40:00,69,18.09,-94.39,78.8,11.41
1498,sakaiminato,20,jp,2018-04-02 22:00:00,38,35.55,133.23,75.2,14.99
1499,qidong,12,cn,2018-04-02 23:05:14,78,31.81,121.66,67.27,20.96
1500,maine-soroa,0,ne,2018-04-02 23:05:23,22,13.21,12.02,67.72,8.21
1501,timizart,92,dz,2018-04-02 23:05:23,57,36.8,4.25,60.34,3.06
1502,wawa,24,ca,2018-04-02 23:05:23,82,47.99,-84.77,14.08,3.74
1503,taseyevo,76,ru,2018-04-02 23:05:15,75,57.22,94.9,26.77,5.19
1504,senneterre,90,ca,2018-04-02 22:38:00,92,48.39,-77.24,19.4,18.34
1505,alihe,48,cn,2018-04-02 23:05:24,30,50.57,123.73,27.76,11.56
1506,havelock,20,ca,2018-04-02 22:00:00,53,45.99,-65.32,26.6,2.24
1507,brody,0,ua,2018-04-02 23:05:17,85,50.08,25.14,30.55,3.4
1508,seoul,90,kr,2018-04-02 22:56:00,60,37.57,126.98,71.6,5.82
1509,san carlos,12,bo,2018-04-02 23:05:26,76,-17.4,-63.73,73.03,5.97
1510,tapejara,36,br,2018-04-02 23:05:27,91,-23.73,-52.87,63.76,2.84
1511,hudson bay,0,ca,2018-04-02 23:05:19,72,52.86,-102.4,7.96,4.07
1512,shakawe,0,bw,2018-04-02 23:05:19,60,-18.36,21.84,63.04,7.65
1513,kenora,1,ca,2018-04-02 22:35:00,46,49.76,-94.48,10.4,5.82
1514,fastiv,0,ua,2018-04-02 22:30:00,86,50.08,29.92,35.6,11.18
1515,kuantan,75,my,2018-04-02 22:00:00,79,3.82,103.33,84.2,5.82
1516,gara,0,hu,2018-04-02 22:30:00,86,46.03,19.04,41.0,9.17
1517,cocorit,5,mx,2018-04-02 21:47:00,37,27.57,-109.96,71.6,4.7
1518,ahraura,0,in,2018-04-02 23:05:30,54,25.02,83.02,80.14,5.64
1519,chornukhy,76,ua,2018-04-02 23:05:22,93,50.27,32.94,33.97,11.34
1520,la orilla,0,mx,2018-04-02 23:05:30,94,18.0,-102.23,74.02,3.96
1521,jardim,8,br,2018-04-02 23:05:23,94,-21.48,-56.15,65.92,2.51
1522,storforshei,44,no,2018-04-02 23:05:23,85,66.4,14.52,10.48,1.16
